stop_id,stop_name,stop_lat,stop_lon,location_type,stop_timezone,wheelchair_boarding
10000,"Tečovice, střed",49.22041382620869,17.587377765691237,0,Europe/Prague,0
10009,"Paršovice, kostel",49.500067292282075,17.711042633967278,0,Europe/Prague,0
10018,"Bystřice p.Host., Černý potok",49.39067969729725,17.683520615938576,0,Europe/Prague,0
10035,"Racková, Drahy",49.2732009888,17.6264743805,0,Europe/Prague,0
10038,"Staré Město, hřbitov",49.075697503225285,17.448914837269935,0,Europe/Prague,0
10044,"Zlín, Malenovice, Sklady",49.20632851,17.5792869403,0,Europe/Prague,0
10045,"Oldřichovice, škola",49.18004167368207,17.55731353163972,0,Europe/Prague,0
10068,"Tečovice, malenovská",49.216462668115426,17.589179000512694,0,Europe/Prague,0
10069,"Pohořelice, st.statek",49.1670117529172,17.54844290976228,0,Europe/Prague,0
10070,Oldřichovice,49.181912750368824,17.561610251282804,0,Europe/Prague,0
10072,"Chvalčov, Včelín",49.3972816467,17.6900901794,0,Europe/Prague,0
10076,"Býškovice, DESTA",49.4668006897,17.710187912,0,Europe/Prague,0
10077,"Staré Město, obchodní zóna",49.07738443842373,17.45454239877665,0,Europe/Prague,0
10081,"Rusava, Podhradí",49.354391745013736,17.67366978798243,0,Europe/Prague,0
10089,"Zlín, Chlum",49.23019550194791,17.602052679240416,0,Europe/Prague,0
10091,"Zlín, Malenovice, U mlýna",49.2075381,17.5850231,0,Europe/Prague,0
10109,"Uherské Hradiště, Štěpnice, U Olšávky",49.06666977898205,17.443731102645263,0,Europe/Prague,0
10110,"Bystřice p.Host., lázně",49.385349681352125,17.68960100792984,0,Europe/Prague,0
10118,"Býškovice, rozc.Rakov",49.468936175450054,17.71351617934512,0,Europe/Prague,0
10130,"Lukoveček, Hadovna",49.30745378269862,17.654174155176747,0,Europe/Prague,0
10133,"Uherské Hradiště, Štěpnice, Za Alejí",49.0673217773,17.4474029541,0,Europe/Prague,0
10140,"Chvalčov, Lhotka",49.39640310127724,17.69469982386143,0,Europe/Prague,0
10151,"Zlín, Malenovice, sídliště",49.2085266966,17.5898669382,0,Europe/Prague,0
10163,"Zlín, Malenovice, Tečovská",49.21257819936565,17.59501217633514,0,Europe/Prague,0
10169,"Komárov, rozc.4.0",49.13831771831856,17.529091537007343,0,Europe/Prague,0
10198,"Uherské Hradiště, Štěpnice, Zahrádky",49.0655212402,17.4504451752,0,Europe/Prague,0
10203,"Fryšták, Žabárna",49.29342714591057,17.651374638118696,0,Europe/Prague,0
10210,"Zlín, Malenovice, Sokolovská",49.2046320189,17.5908908827,0,Europe/Prague,0
10217,"Zlín, Malenovice, točna",49.2086311086,17.5950070884,0,Europe/Prague,0
10219,"Zlín, Malenovice, křiž.",49.20949576631616,17.596727495676106,0,Europe/Prague,0
10224,"Rusava, kino",49.3466488455016,17.68027031661269,0,Europe/Prague,0
10231,"Zlín, Malenovice, Jar.Staši",49.2060650367,17.5936229717,0,Europe/Prague,0
10237,"Chvalčov, u pomníku",49.39454198280536,17.700285613507333,0,Europe/Prague,0
10238,"Uherské Hradiště, nemocnice",49.0644454956,17.4520797729,0,Europe/Prague,0
10243,"Zlín, Malenovice, Masarykova",49.20765684,17.5954993041,0,Europe/Prague,0
10252,"Uherské Hradiště, Purkyňova",49.0649871826,17.4542713165,0,Europe/Prague,0
10253,"Zlín, Malenovice, Jarolímkovo nám.",49.2051573065,17.5945895936,0,Europe/Prague,0
10255,"Hranice, Šromotovo nám.",49.551195391182254,17.733583688768782,0,Europe/Prague,0
10258,"Loukov, Libosváry",49.43068673297951,17.713593377672133,0,Europe/Prague,0
10264,"Zlín, Malenovice, škola",49.207229167560584,17.596286108752576,0,Europe/Prague,0
10271,"Zlín, Malenovice, Zabrání",49.2037076142,17.5950358854,0,Europe/Prague,0
10278,"Hranice, Pod farou",49.545221167418596,17.734817207409655,0,Europe/Prague,0
10283,"Bystřice p.Host., Na císařské",49.385859421067956,17.69924589797926,0,Europe/Prague,0
10290,"Kunovice, Let",49.04662183,17.43559167,0,Europe/Prague,0
10295,"Zlín, Malenovice, 1.máje",49.2018093832,17.5954333301,0,Europe/Prague,0
10299,"Bystřice p.Host., Hostýn",49.37619983,17.69805877,0,Europe/Prague,0
10308,"Uherské Hradiště, aut.nádr.",49.070135845012366,17.465037047818882,0,Europe/Prague,0
10319,"Zlín, Louky, točna",49.2177113868,17.6084845247,0,Europe/Prague,0
10333,"Rusava, Zakopanica",49.34069096634441,17.685075295549545,0,Europe/Prague,0
10341,"Loukov, dolní",49.41916493807924,17.715706007982504,0,Europe/Prague,0
10348,"Uherské Hradiště, střední školy",49.065788269,17.4632587433,0,Europe/Prague,0
10350,"Rusava, ZŠ",49.348111823220414,17.689396178003978,0,Europe/Prague,0
10351,"Hranice, aut.st.",49.5632743835,17.7402477264,0,Europe/Prague,0
10352,"Zlín, Malenovice, Kamenec I",49.1990786737,17.5970833176,0,Europe/Prague,0
10357,"Zlín, Malenovice, Pila",49.2103270727,17.6062333465,0,Europe/Prague,0
10364,"Zlín, Malenovice, Kamenec II",49.2002101795,17.5986143649,0,Europe/Prague,0
10367,"Chvalčov, pošta",49.390704800213044,17.707822763328203,0,Europe/Prague,0
10370,"Zlín, Louky, střed",49.2196095583,17.6140327934,0,Europe/Prague,0
10378,"Horní Újezd, točna",49.44850260242442,17.726047249786983,0,Europe/Prague,0
10395,Lukoveček,49.30233906490845,17.66932180524226,0,Europe/Prague,0
10402,"Rusava, u lomu",49.352490196014465,17.694463465463098,0,Europe/Prague,0
10404,"Zlín, Malenovice, cihelna",49.2112167404,17.6102372878,0,Europe/Prague,0
10407,"Uherské Hradiště, B.Němcové",49.06405868538658,17.466573192472122,0,Europe/Prague,0
10424,"Opatovice, rest.",49.49978544402199,17.739600510582164,0,Europe/Prague,0
10425,Karlovice,49.17678534056019,17.5837513988041,0,Europe/Prague,0
10429,"Opatovice, dolní konec",49.5042165387132,17.740260547774945,0,Europe/Prague,0
10431,"Uherské Hradiště, Jarošov, U Řeky",49.0820389543622,17.489057987928405,0,Europe/Prague,0
10437,"Zlín, Louky, hřiště",49.2188534173,17.6184179056,0,Europe/Prague,0
10438,"Loukov, kostel",49.423476284570214,17.72350291848198,0,Europe/Prague,0
10439,"Uherské Hradiště, Jaktáře",49.077345967774534,17.48435348274043,0,Europe/Prague,0
10445,"Uherské Hradiště, Jarošov, pivovar",49.08667647063127,17.496046120504605,0,Europe/Prague,0
10446,"Uherské Hradiště, Mesit",49.072406036005255,17.479498315494308,0,Europe/Prague,0
10449,"Zlín, Louky, obchodní zóna",49.21281195121527,17.616104423998625,0,Europe/Prague,0
10457,"Bystřice p.Host., lom u Švajgrovky",49.37956131783199,17.709688344774648,0,Europe/Prague,0
10466,"Horní Újezd, škola",49.44755116135492,17.73218842283807,0,Europe/Prague,0
10471,"Karlovice, točna",49.17561473770671,17.586683610234722,0,Europe/Prague,0
10472,"Uherské Hradiště, Jarošov, Louky",49.088684082,17.500705719,0,Europe/Prague,0
10473,"Rusava, Hořansko",49.354409272169185,17.70080824534422,0,Europe/Prague,0
10479,"Uherské Hradiště, Mařatice, dol.konec",49.0681495667,17.4772224426,0,Europe/Prague,0
10482,"Uherské Hradiště, garáže ČSAD",49.05972600438483,17.46669593670302,0,Europe/Prague,0
10486,"Komárov, garáže",49.153978798591886,17.568303750888425,0,Europe/Prague,0
10489,"Zlín, Mladcová, hřbitov",49.2480314469765,17.64303156708478,0,Europe/Prague,0
10494,"Zlín, Malenovice, Karlov",49.19417841977197,17.603338917762986,0,Europe/Prague,0
10495,"Zlín, Louky, prům.zóna",49.2145416984,17.6192886454,0,Europe/Prague,0
10498,"Teplice n.Bečvou, lázně",49.53311857118445,17.747752160657235,0,Europe/Prague,0
10508,"Teplice n.Bečvou, žel.st.",49.52964834340836,17.748248105093033,0,Europe/Prague,0
10512,"Chvalčov, hotel Říka",49.38519222937458,17.716163513232786,0,Europe/Prague,0
10517,"Uherské Hradiště, Jarošov, Blaně",49.090361888333305,17.506580523524587,0,Europe/Prague,0
10526,"Uherské Hradiště, Špitálky",49.0569877625,17.4679336548,0,Europe/Prague,0
10531,"Uherské Hradiště, Jarošov, náves",49.0858764648,17.5027313232,0,Europe/Prague,0
10533,"Rusava, Ráztoka, hotel",49.33565134562277,17.696513701106156,0,Europe/Prague,0
10540,Kněžpole,49.09874665306719,17.517163490378923,0,Europe/Prague,0
10542,Topolná,49.12130355791533,17.54082779267177,0,Europe/Prague,0
10548,"Zlín, Louky, křiž.",49.21641297699648,17.62544767435858,0,Europe/Prague,0
10551,Komárov,49.15008200702639,17.570056027000994,0,Europe/Prague,0
10557,"Fryšták, Lukoveček rozc.1.0",49.29069298498737,17.67592268162575,0,Europe/Prague,0
10558,"Uherské Hradiště, Mařatice, škola",49.0650863647,17.4806556702,0,Europe/Prague,0
10562,"Ústí, osada Mariánské Údolí",49.52482970440193,17.752764858746087,0,Europe/Prague,0
10566,"Zlín, Louky, Růžová",49.216829610173896,17.6282256949087,0,Europe/Prague,0
10575,"Zlín, Mladcová, Bartošův dům",49.24101012047108,17.646274855700852,0,Europe/Prague,0
10585,"Kunovice, rozc.k žel.st.0.5",49.05028918622677,17.46629067258016,0,Europe/Prague,0
10593,"Chvalčov, Revír",49.37996130994934,17.72052422164875,0,Europe/Prague,0
10594,"Kunovice, Na Bělince",49.04662724117861,17.452372455808856,0,Europe/Prague,0
10596,"Uherské Hradiště, Východ, Větrná",49.0599327087,17.4785823822,0,Europe/Prague,0
10605,"Zlín, Mladcová, hřiště",49.23584107931136,17.644672271282804,0,Europe/Prague,0
10608,"Zlín, Podhoří, točna",49.2151172566,17.6300557072,0,Europe/Prague,0
10612,"Uherské Hradiště, Mařatice, hor.konec",49.0620651245,17.482635498,0,Europe/Prague,0
10627,"Uherské Hradiště, Východ, Derflanská",49.0576553345,17.4789581299,0,Europe/Prague,0
10628,"Uherské Hradiště, Mařatice, hřbitov",49.0639152527,17.4868545532,0,Europe/Prague,0
10632,"Kněžpole, vodárna",49.091302690234244,17.51868611571086,0,Europe/Prague,0
10634,"Zlín, Podhoří sídliště",49.2183047,17.6347944,0,Europe/Prague,0
10637,"Uherský Ostroh, točna",48.98383335755223,17.37800950960328,0,Europe/Prague,0
10640,"Horní Újezd, Drholec",49.445893349009765,17.74530048061813,0,Europe/Prague,0
10644,"Zlín, Mladcová, rozvodna",49.229566329474046,17.64392789767921,0,Europe/Prague,0
10645,"Zlín, Na Drahách",49.2419376146,17.6524450338,0,Europe/Prague,0
10650,"Zlín, Malenovice, nad Prohledem",49.182203634581164,17.607933227672138,0,Europe/Prague,0
10661,"Kunovice, Panská",49.04231015893316,17.4629610376374,0,Europe/Prague,0
10662,"Uherské Hradiště, Východ, Rudy Kubíčka",49.0591545105,17.4838752747,0,Europe/Prague,0
10667,"Fryšták, Dolní Ves, točna",49.27324758142756,17.673519570176914,0,Europe/Prague,0
10676,"Zlín, Mokrá II",49.2402642756,17.6527761504,0,Europe/Prague,0
10678,"Všechovice, Přílesí, rozc.",49.452261189218085,17.748811298035637,0,Europe/Prague,0
10679,"Rusava, Ráztoka, u mostu",49.33420140775803,17.707288359346254,0,Europe/Prague,0
10680,"Fryšták, Dolní Ves, střed",49.27899905246704,17.6778965297232,0,Europe/Prague,0
10682,"Loukov, Benzina",49.4161625502488,17.73908025999999,0,Europe/Prague,0
10697,"Kunovice, Na Rynku",49.043474807396734,17.46739353886078,0,Europe/Prague,0
10699,"Zlín, Prštné",49.2199649586,17.640711739,0,Europe/Prague,0
10703,"Uherské Hradiště, Sady, střed",49.051722547015835,17.47973260216733,0,Europe/Prague,0
10711,"Fryšták, nám.",49.2849148900675,17.683715552129886,0,Europe/Prague,0
10713,"Zlín, Podhoří, M.Alše",49.2166291754,17.6389777854,0,Europe/Prague,0
10715,"Zlín, Klabalská I",49.240540998,17.6561377961,0,Europe/Prague,0
10719,"Kunovice, škola",49.038981,17.462853,0,Europe/Prague,0
10720,"Osíčko, rozc.k žel.st.",49.42437873724781,17.743996385444003,0,Europe/Prague,0
10722,"Fryšták, Dolní Ves",49.28277986854545,17.683191419073808,0,Europe/Prague,0
10726,"Mistřice, rozc.1.0",49.0961892349595,17.531516313536066,0,Europe/Prague,0
10730,Lhota,49.16939034881594,17.602825474002,0,Europe/Prague,0
10733,"Uherský Ostroh, náměstí",48.98507,17.3888,0,Europe/Prague,0
10737,"Malhotice, hřbitov",49.48577746344549,17.760023169345406,0,Europe/Prague,0
10741,"Zlín, Mokrá I",49.2373951263,17.6562437682,0,Europe/Prague,0
10749,"Zlín, A.Randýskové",49.2183867661,17.6435542701,0,Europe/Prague,0
10750,"Zlín, K Pasekám",49.237218116,17.6569377298,0,Europe/Prague,0
10753,"Lhota, točna",49.16807827167047,17.603633534295998,0,Europe/Prague,0
10754,"Uherský Ostroh, most",48.986788,17.393685,0,Europe/Prague,0
10758,"Osíčko, točna",49.42766351980805,17.74812955337295,0,Europe/Prague,0
10760,"Bílovice, Včelary",49.096667511037886,17.535526614358606,0,Europe/Prague,0
10766,"Kunovice, Novoveská",49.03285622398334,17.459911573254068,0,Europe/Prague,0
10770,"Všechovice, aut.st.",49.46109037,17.75754948,0,Europe/Prague,0
10775,"Zlín, Pod Babou",49.2306054411,17.6541663934,0,Europe/Prague,0
10776,"Zlín, Zlínské Paseky, hřiště",49.2427821473,17.6626161341,0,Europe/Prague,0
10778,"Zlín, Mladcovská",49.22871385652533,17.65284894731554,0,Europe/Prague,0
10781,"Zlín, Zahradnická",49.220774975620216,17.648046969530494,0,Europe/Prague,0
10782,"Zlín, Pasecká",49.238790983,17.6602816097,0,Europe/Prague,0
10783,"Malhotice, náves",49.48943384263987,17.764039242792844,0,Europe/Prague,0
10784,"Kunovice, Lidická",49.041001174780426,17.471566863674866,0,Europe/Prague,0
10786,"Zlín, Zlínské Paseky, točna",49.2452163266,17.6648536263,0,Europe/Prague,0
10790,"Uherské Hradiště, Sady, Za Kovárnou",49.050828825794476,17.484964429906128,0,Europe/Prague,0
10791,"Osíčko, náves",49.43033638556608,17.751143438266446,0,Europe/Prague,0
10792,"Zlín, Topolová",49.2184780161,17.6466354962,0,Europe/Prague,0
10793,"Zlín, Družstevní",49.2344754589,17.6580734271,0,Europe/Prague,0
10805,"Kunovice, Petříkovec",49.0284451872486,17.458093719762253,0,Europe/Prague,0
10822,"Ostrožská Nová Ves, Novoveské lázně",49.01784623826053,17.446248561117713,0,Europe/Prague,0
10827,"Fryšták, Na špici",49.2860127076398,17.69396096470901,0,Europe/Prague,0
10832,"Chvalčov, Valašky",49.37262379014891,17.73563115201641,0,Europe/Prague,0
10833,"Zlín, poliklinika",49.22168349101508,17.652546180321902,0,Europe/Prague,0
10841,"Mistřice, dol.konec",49.08835852515469,17.533831194299182,0,Europe/Prague,0
10843,"Zlín, Antonínova",49.2208539652,17.6528491329,0,Europe/Prague,0
10844,"Zlín, Čepkov",49.228656778878985,17.657373645350546,0,Europe/Prague,0
10851,"Všechovice, U Juhyně",49.45841374078491,17.76298987116393,0,Europe/Prague,0
10858,"Bílovice, točna",49.10000339430462,17.547590390688462,0,Europe/Prague,0
10864,"Zlín, Česká",49.2412631173,17.668556828,0,Europe/Prague,0
10866,"Zlín, střed",49.2265279887,17.6584740012,0,Europe/Prague,0
10867,"Zlín, J.A.Bati",49.2227125194,17.6557761943,0,Europe/Prague,0
10874,"Uherský Ostroh, rest.Osmek",48.98666459181214,17.40649666612351,0,Europe/Prague,0
10882,"Uherský Ostroh, Kvačice",48.98991769744944,17.41161828530287,0,Europe/Prague,0
10896,"Zlín, aut.nádr.",49.22577017181938,17.661213570914388,0,Europe/Prague,0
10897,"Zlín, Na Vyhlídce",49.2190457941,17.6553646175,0,Europe/Prague,0
10900,"Zlín, Dvacátá",49.2237750668,17.6588619052,0,Europe/Prague,0
10905,"Ostrožská Nová Ves, Kopanice",49.00852722824755,17.439489010653748,0,Europe/Prague,0
10907,"Uherský Ostroh, Dyas",48.981642,17.401098,0,Europe/Prague,0
10908,"Ostrožská Nová Ves, křiž.",49.00506009464475,17.434643416201023,0,Europe/Prague,0
10911,"Kunovice, Osvobození",49.02992894822235,17.468746383159925,0,Europe/Prague,0
10912,Mistřice,49.08595347435251,17.536286399252088,0,Europe/Prague,0
10916,"Zlín, Salaš, zast.",49.175527456132144,17.622938235904346,0,Europe/Prague,0
10917,"Bílovice, průmyslový areál",49.10594681,17.55820339,0,Europe/Prague,0
10918,"Provodovice, rozc.",49.45130226194095,17.765846125214686,0,Europe/Prague,0
10929,"Zlín, u zámku",49.225868853719284,17.661985486723378,0,Europe/Prague,0
10937,"Zlín, náměstí Práce",49.223247158756784,17.661479986543224,0,Europe/Prague,0
10939,"Zlín, Jižní Svahy, Kocanda",49.2426950822,17.674052121,0,Europe/Prague,0
10942,"Zlín, Sportovní hala",49.2201240685,17.6586740514,0,Europe/Prague,0
10945,"Zlín, Budovatelská",49.2353604497,17.6694105382,0,Europe/Prague,0
10951,"Zlín, Vodní",49.2284313393,17.6651802717,0,Europe/Prague,0
10962,"Mistřice, Javorovec",49.076579721917604,17.529381959974298,0,Europe/Prague,0
10970,"Fryšták, Vítová, u kříže",49.29170338780697,17.70609451826646,0,Europe/Prague,0
10971,"Ostrožská Nová Ves, Chylice",48.99721075744601,17.42879824839545,0,Europe/Prague,0
10980,"Zlín, náměstí Míru",49.22546028796895,17.664793177660684,0,Europe/Prague,0
10982,"Zlín, Malý Kostelec, přehrada",49.26510425830602,17.690795693296593,0,Europe/Prague,0
10984,"Fryšták, Vítová, rozc.1.0",49.2871133073458,17.70447468761301,0,Europe/Prague,0
10987,"Fryšták, Vítová, točna",49.29614756912369,17.709319687806175,0,Europe/Prague,0
10990,"Uherské Hradiště, Vésky, hor.konec",49.04747395414977,17.497165838619434,0,Europe/Prague,0
10996,"Mistřice, Pod Lipkami",49.082504414144935,17.538071739574107,0,Europe/Prague,0
11008,"Březolupy, škola",49.1208306,17.5808372,0,Europe/Prague,0
11012,"Březolupy, Zápolí",49.11677014022002,17.57543706897396,0,Europe/Prague,0
11013,"Zlín, Salaš, točna",49.17273207449786,17.62695640327126,0,Europe/Prague,0
11016,"Zlín, Cigánov",49.231345384788405,17.671951025695293,0,Europe/Prague,0
11022,"Šarovy, hor.konec",49.15180501895121,17.609746460796387,0,Europe/Prague,0
11024,Šarovy,49.14835242403612,17.606694838379944,0,Europe/Prague,0
11027,"Zlín, Školní",49.2235294,17.6671242,0,Europe/Prague,0
11032,"Bílovice, Chmelnice",49.09868283787745,17.558347623006377,0,Europe/Prague,0
11046,"Březolupy, hájenka",49.131250461152675,17.59213075045796,0,Europe/Prague,0
11049,"Zlín, divadlo",49.22541337958078,17.670089201206473,0,Europe/Prague,0
11051,"Březolupy, zámek",49.12083138095845,17.582466304269794,0,Europe/Prague,0
11052,"Kunovice, koupaliště",49.03890716570843,17.490971461790924,0,Europe/Prague,0
11055,"Zlín, Dlouhá",49.22648463104463,17.66904833498678,0,Europe/Prague,0
11057,"Zlín, U Majáku, točna",49.2018759243,17.6529998686,0,Europe/Prague,0
11068,"Zlín, Padělky I",49.2322992963,17.6759208282,0,Europe/Prague,0
11069,"Zlín, Lešetín I",49.227305484,17.6724926696,0,Europe/Prague,0
11070,"Uherský Ostroh, závod ČD",48.97352654436736,17.402079744258252,0,Europe/Prague,0
11072,"Zlín, Benešovo nábřeží",49.2302879192,17.6746663981,0,Europe/Prague,0
11074,"Zlín, zimní lázně",49.22219973060133,17.66893032889532,0,Europe/Prague,0
11093,"Uherské Hradiště, Vésky, střed",49.0438585185944,17.500224551332067,0,Europe/Prague,0
11094,"Zlín, U Majáku, Ke Křibům",49.2017278497,17.6549522721,0,Europe/Prague,0
11102,"Zlín, Kostelec-Lázně, rozc.",49.254614762989796,17.692318734178688,0,Europe/Prague,0
11105,"Šarovy, Dvůr Lapač",49.14011747568043,17.605160297070682,0,Europe/Prague,0
11111,"Zlín, Kúty",49.2315208545,17.6780644525,0,Europe/Prague,0
11116,"Ostrožská Nová Ves, ZD",48.999576035646896,17.44475969683269,0,Europe/Prague,0
11123,"Zlín, Vysoká mez",49.23331262749788,17.680942248207018,0,Europe/Prague,0
11128,"Veselí n.Mor., Milokošť",48.966632,17.396782,0,Europe/Prague,0
11131,"Zlín, Hradská",49.220805591111194,17.672470300154565,0,Europe/Prague,0
11135,"Zlín, Bratří Jaroňků",49.2255146175,17.6758549468,0,Europe/Prague,0
11150,"Zlín, U Majáku, křiž.",49.202120220877646,17.660261458162427,0,Europe/Prague,0
11164,"Zlín, Vršava",49.2419665929,17.6888377326,0,Europe/Prague,0
11166,"Zlín, U Splavu",49.2295489356,17.6805747567,0,Europe/Prague,0
11167,"Veselí n.Mor., Břestek",48.961187,17.391685,0,Europe/Prague,0
11168,"Zlín, Díly II",49.2272274414,17.6792446843,0,Europe/Prague,0
11176,"Březnice, zast.",49.18000421659189,17.6444332661743,0,Europe/Prague,0
11179,"Zlín, Kostelec, garáže",49.2672444682,17.7060527758,0,Europe/Prague,0
11185,"Zlín, Burešov",49.2347794306,17.685887771,0,Europe/Prague,0
11186,"Zlín, Kostelec, u pomníku TGM",49.260221822,17.7023265084,0,Europe/Prague,0
11187,"Zlín, Vršava, Januštice-tenisové kurty",49.2391937702,17.6889179658,0,Europe/Prague,0
11191,"Veselí n.Mor., Chaloupky",48.955573,17.38511,0,Europe/Prague,0
11198,"Zlín, Prostřední",49.2246017369,17.6798783391,0,Europe/Prague,0
11201,"Zlín, Kostelec-Lázně, Štípská",49.25686267047612,17.702166555105048,0,Europe/Prague,0
11207,"Bohuslavice u Zlína, vozovna",49.15747242515915,17.628086268935213,0,Europe/Prague,0
11208,"Uherské Hradiště, Míkovice, Na Příkopě",49.03903425331772,17.504129478661035,0,Europe/Prague,0
11209,"Zlín, Podvesná VI",49.2282841374,17.6831669701,0,Europe/Prague,0
11213,"Březnice, paseky",49.19191247888688,17.657189503279316,0,Europe/Prague,0
11222,"Uherské Hradiště, Míkovice, Hlavní",49.03780950977658,17.504163995083356,0,Europe/Prague,0
11225,"Nedachlebice, u mlýna",49.09759652398991,17.57277899721906,0,Europe/Prague,0
11232,"Bohuslavice u Zlína, sokolovna",49.169447243196224,17.640313289702835,0,Europe/Prague,0
11236,"Zlín, Morýsovy domy",49.2254353239,17.6832627711,0,Europe/Prague,0
11238,Komárno,49.434520803002876,17.781072113229367,0,Europe/Prague,0
11251,"Kelč, Babice, náves",49.45751150918602,17.78835192808694,0,Europe/Prague,0
11252,"Bohuslavice u Zlína, škola",49.16138539,17.634993630629033,0,Europe/Prague,0
11254,"Zlín, Zálešná V",49.2307804576,17.6880544367,0,Europe/Prague,0
11255,"Bohuslavice u Zlína, křiž.",49.16433009621745,17.63733220556461,0,Europe/Prague,0
11261,"Březnice, křiž.",49.18391795331802,17.654239773755556,0,Europe/Prague,0
11274,"Zlín, Lešná, ZOO",49.27428461361422,17.72062217684015,0,Europe/Prague,0
11277,"Zlín, Spojovací",49.2245170152,17.685030324,0,Europe/Prague,0
11283,"Zlín, Podvesná XII",49.2287354713,17.6886064428,0,Europe/Prague,0
11297,"Zlín, Kostelec, U Řadovek",49.2596779599,17.7097050257,0,Europe/Prague,0
11309,"Březnice, rozc.",49.185056205424026,17.65848878029465,0,Europe/Prague,0
11311,"Svárov, paseky",49.12071265414429,17.602317803848404,0,Europe/Prague,0
11315,"Zlín, Filmové ateliéry točna",49.2001497049,17.6704674364,0,Europe/Prague,0
11318,"Popovice, dol.konec",49.04794925505113,17.5248866820215,0,Europe/Prague,0
11331,"Zlín, Kostelec, hřbitov",49.265548509266516,17.715963395509114,0,Europe/Prague,0
11333,"Zlín, Věžové domy",49.2251069558,17.6898671939,0,Europe/Prague,0
11335,"Lukov, Domov důchodců",49.290209581753345,17.73016718027495,0,Europe/Prague,0
11338,"Nedachlebice, hor.konec",49.09759850563834,17.581566561583557,0,Europe/Prague,0
11340,"Zlín, Příkrá",49.2207422146,17.687426766,0,Europe/Prague,0
11343,"Zlín, Baťova nem.",49.2290858,17.6934217,0,Europe/Prague,0
11347,"Zlín, Štípa, Mariánské náměstí",49.26252740086147,17.714785994834077,0,Europe/Prague,0
11352,"Zlín, Podvesná XVII",49.2261111595,17.6921444518,0,Europe/Prague,0
11353,"Zlín, Příční",49.2241524128,17.6908358572,0,Europe/Prague,0
11363,"Zlín, Štípa, škola",49.261993115934125,17.716182009311535,0,Europe/Prague,0
11369,"Zlín, Broučkova",49.2256579052,17.6932913446,0,Europe/Prague,0
11371,"Zlín, Kudlov, dolní konec",49.20964706777686,17.682197416144522,0,Europe/Prague,0
11382,"Zlín, Lesní Čtvrť, gymnázium",49.2192801903,17.6894849713,0,Europe/Prague,0
11394,"Zlín, Slínová",49.2238751544,17.6933934667,0,Europe/Prague,0
11406,Nedachlebice,49.099296965257295,17.58884948080733,0,Europe/Prague,0
11407,"Podolí, U Olšavy",49.043358854506494,17.526811030747908,0,Europe/Prague,0
11410,"Zlín, Dřevnická, škola",49.2276040505,17.6970223593,0,Europe/Prague,0
11411,"Zlín, Lesní čtvrť",49.2195989774,17.691617228,0,Europe/Prague,0
11414,"Lukov, točna",49.29207295952257,17.736509549504916,0,Europe/Prague,0
11415,"Zlín, Kudlov, střed",49.206599542253734,17.68266398232785,0,Europe/Prague,0
11421,"Podolí, U Zvonice",49.04296685229209,17.526605996864795,0,Europe/Prague,0
11422,"Zlín, Štípa, U Kapličky",49.268218627,17.7236289944,0,Europe/Prague,0
11429,"Březnice, střed",49.18845104708312,17.669840648753933,0,Europe/Prague,0
11437,"Rajnochovice, Tesák",49.36645576807664,17.773259697350753,0,Europe/Prague,0
11439,"Lukov, horní zast.",49.29026505274325,17.738065227894502,0,Europe/Prague,0
11452,"Zlín, M.Knesla",49.2249617653,17.6988051466,0,Europe/Prague,0
11473,"Zlín, Kudlov, Výhledy",49.20245613280041,17.684122526722632,0,Europe/Prague,0
11474,"Kelč, Lhota, náves",49.457542004719976,17.8037114581476,0,Europe/Prague,0
11478,Podhradní Lhota,49.42077879936879,17.79521647669596,0,Europe/Prague,0
11480,"Zlín, Štípa, U Potoka",49.26580596644967,17.727487073568625,0,Europe/Prague,0
11481,"Podhradní Lhota, žel.st.",49.43230550699987,17.798283361429213,0,Europe/Prague,0
11485,"Svárov, Pod Svárovem",49.119310512659375,17.61598714325407,0,Europe/Prague,0
11491,"Zlín, Bartošova Čtvrť, zdrav.škola",49.2243257761,17.7020754867,0,Europe/Prague,0
11510,"Zlín, Štípa, U Obrázku",49.2725718951,17.7338835666,0,Europe/Prague,0
11512,"Březnice, točna",49.1875686646,17.6767883301,0,Europe/Prague,0
11519,Zlámanec,49.12957155771655,17.62859784263933,0,Europe/Prague,0
11525,"Zlín, Jaroslavice, dolní konec",49.2140035198,17.6973776701,0,Europe/Prague,0
11538,"Zlín, Kudlov, U Pomníku padlých",49.19921663048583,17.688339481119264,0,Europe/Prague,0
11546,"Podolí, U žlebu",49.038713516556186,17.53411521761269,0,Europe/Prague,0
11548,"Zlín, Bartošova čtvrť",49.2252359981,17.706674932,0,Europe/Prague,0
11569,"Bohuslavice u Zlína, Brdo",49.15187319526323,17.651190231159593,0,Europe/Prague,0
11576,"Kunovice, Nový dvůr",49.00445674027758,17.494046620970902,0,Europe/Prague,0
11578,"Vlčková, točna",49.3107872009,17.7588386536,0,Europe/Prague,0
11580,"Zlín, Štípa, Na Vyhlídce",49.2764402614,17.7406049538,0,Europe/Prague,0
11593,"Zlín, Žabárna",49.224936395,17.7090720015,0,Europe/Prague,0
11598,"Kunovice, ObÚ",49.44306480788482,17.8084246543247,0,Europe/Prague,0
11625,"Zlín, Příluky, Za Kapličkou",49.2266030154,17.7131529738,0,Europe/Prague,0
11628,"Kelč, aut.st.",49.47890150535934,17.818511517459093,0,Europe/Prague,0
11633,"Kunovice, Na Páně",49.44684160695139,17.81235994501238,0,Europe/Prague,0
11638,"Zlín, Kudlov, točna",49.199554642,17.6948487049,0,Europe/Prague,0
11662,"Vlčková, most",49.30997530793422,17.764544261981353,0,Europe/Prague,0
11666,"Zlín, Jaroslavice, pož.zbroj.",49.2103809757,17.7041582654,0,Europe/Prague,0
11672,"Rajnochovice, u kapličky",49.41619419320001,17.80638458602289,0,Europe/Prague,0
11690,"Kelč, rozc.",49.47819620853166,17.822637757672123,0,Europe/Prague,0
11696,"Zlín, Jaroslavice, točna",49.2088343188,17.7054925022,0,Europe/Prague,0
11700,"Kelč, pálenice",49.46786680523287,17.821231328063867,0,Europe/Prague,0
11710,"Zlín, Příluky",49.22067579847168,17.71461595602149,0,Europe/Prague,0
11711,"Kelč, Na Dolině",49.47415329075683,17.823347412537434,0,Europe/Prague,0
11717,"Částkov, střed",49.10405211010896,17.6192488741803,0,Europe/Prague,0
11718,"Vlčková, zast.",49.306637377880726,17.766842484462273,0,Europe/Prague,0
11722,"Zlín, Kudlov, Průkop",49.19758822310133,17.699693957612695,0,Europe/Prague,0
11724,"Kelč, ZD",49.481749021194595,17.825996305889138,0,Europe/Prague,0
11727,"Kunovice, hřiště",49.443910152989176,17.815080113491803,0,Europe/Prague,0
11731,"Zlín, Příluky, Cecilka",49.2228899458,17.7183785303,0,Europe/Prague,0
11736,"Ostrožská Lhota, Obecní úřad",48.97556107,17.46734536,0,Europe/Prague,0
11744,"Rajnochovice, ObÚ",49.41355284046949,17.811108488909753,0,Europe/Prague,0
11747,"Ostrožská Lhota, Jednota",48.97823799224557,17.47223948035354,0,Europe/Prague,0
11750,"Kunovice, žel.st.",49.44033267390032,17.81855566807058,0,Europe/Prague,0
11785,"Rajnochovice, garáže",49.40765036822076,17.81154233416895,0,Europe/Prague,0
11789,"Zlín, Velíková, střed",49.2816099106,17.7583125924,0,Europe/Prague,0
11796,"Hluk, SZT",48.999194817729744,17.50535344643669,0,Europe/Prague,0
11821,"Zlín, Kudlov, garáže",49.1866657115807,17.69956386964342,0,Europe/Prague,0
11824,"Vlčková, rozc.",49.29706130584269,17.770068108987637,0,Europe/Prague,0
11843,"Rajnochovice, Rosošná",49.40116422354414,17.814530271785436,0,Europe/Prague,0
11852,"Rajnochovice, Bernádka",49.35257297835758,17.79762571368703,0,Europe/Prague,0
11855,Doubravy,49.14159434527452,17.665364283415933,0,Europe/Prague,0
11861,Držková,49.317151785317314,17.78322574492986,0,Europe/Prague,0
11875,"Kelč, Němetice, čekárna",49.50181705057434,17.84022547713257,0,Europe/Prague,0
11876,"Veletiny, křiž.",49.03683717951289,17.561263477301075,0,Europe/Prague,0
11888,"Veletiny, kaplička",49.0373958138925,17.563179270866783,0,Europe/Prague,0
11890,"Rajnochovice, kostel",49.41141003,17.82180681,0,Europe/Prague,0
11904,"Hvozdná, U Rybníka",49.24398209523185,17.746252715630373,0,Europe/Prague,0
11913,"Zlín, Kudlov, myslivna",49.182499863320785,17.70447441135959,0,Europe/Prague,0
11921,"Hvozdná, pož.zbroj.",49.25065350901664,17.752217844825328,0,Europe/Prague,0
11922,"Loučka, rozc.",49.440517623858945,17.832521259286807,0,Europe/Prague,0
11926,"Hvozdná, dolní zast.",49.24747263117685,17.75063451244968,0,Europe/Prague,0
11929,"Hvozdná, Osmek",49.256860784630916,17.756294488914868,0,Europe/Prague,0
11930,"Rajnochovice, Sochová",49.39023353091601,17.818303456382324,0,Europe/Prague,0
11936,"Hradčovice, žel.st.",49.04403389163878,17.575115459850988,0,Europe/Prague,0
11937,Kelníky,49.11119082301272,17.645614824044046,0,Europe/Prague,0
11938,"Kašava, pila",49.293588111809115,17.77709087731035,0,Europe/Prague,0
11940,"Loučka, čekárna",49.43876724972645,17.832621563187715,0,Europe/Prague,0
11951,"Ostrata, dolní zast.",49.26647815561406,17.76399328999999,0,Europe/Prague,0
11955,"Hradčovice, Obecní úřad",49.04770780460974,17.58145576369973,0,Europe/Prague,0
11956,"Kašava, Teplice",49.3087043762,17.7867012024,0,Europe/Prague,0
11959,"Ostrata, horní zast.",49.271005270101725,17.7671379582133,0,Europe/Prague,0
11961,"Rajnochovice, Košovy",49.37358502460237,17.814728032881536,0,Europe/Prague,0
11962,"Veletiny, Dřevoděl",49.0336005860564,17.565815228817776,0,Europe/Prague,0
11987,"Držková, pod Jaroňovou",49.33216191443164,17.800741912319644,0,Europe/Prague,0
11991,"Kelč, Komárovice, mlýn",49.48000472800374,17.846354375284804,0,Europe/Prague,0
12001,"Kašava, dolní zast.",49.29272319719957,17.782757720640298,0,Europe/Prague,0
12005,"Držková, točna",49.328835799457366,17.800707578663925,0,Europe/Prague,0
12008,"Kelníky, rozc.1.0",49.10780873669504,17.64964171901436,0,Europe/Prague,0
12009,"Zlín, Lužkovice, Zádědina",49.2242518616,17.7430668806,0,Europe/Prague,0
12017,"Hradčovice, Lhotka, rozc.1.0",49.04792540326041,17.58816021797788,0,Europe/Prague,0
12023,"Rajnochovice, Troják",49.353706415674964,17.812044024502026,0,Europe/Prague,0
12024,"Kašava, horní zast.",49.297284121737526,17.787010133266445,0,Europe/Prague,0
12037,"Hluk, hostinec",48.989415239754905,17.518928239567625,0,Europe/Prague,0
12054,"Zlín, Lužkovice, Na Gruntech",49.223205186508125,17.74654777268808,0,Europe/Prague,0
12060,"Kelč, Komárovice, rozc.",49.48996846932107,17.85408919632986,0,Europe/Prague,0
12068,"Hošťálková, rozc.Troják",49.34414911540986,17.8127906918975,0,Europe/Prague,0
12075,"Želechovice n.Dřev., křiž.",49.21888026479079,17.74617963913324,0,Europe/Prague,0
12080,"Březůvky, Na hutích",49.164544774581294,17.70636215803721,0,Europe/Prague,0
12081,"Želechovice n.Dřev., host.",49.216957753790105,17.745076927037882,0,Europe/Prague,0
12084,"Želechovice n.Dřev., ZD",49.212085002242134,17.741839723135225,0,Europe/Prague,0
12094,"Želechovice n.Dřev., most",49.207367749921296,17.73985224074792,0,Europe/Prague,0
12096,"Březůvky, rest.",49.15357700120667,17.699599385222857,0,Europe/Prague,0
12098,"Kladeruby, Hořansko",49.49221733032632,17.858350254889576,0,Europe/Prague,0
12118,"Březůvky, Losky",49.157772531551515,17.704604259046633,0,Europe/Prague,0
12124,"Hluk, škola",48.987877007974525,17.52755393463104,0,Europe/Prague,0
12134,"Velký Ořechov, rest.",49.11087294885178,17.66541213419359,0,Europe/Prague,0
12135,Drslavice,49.04714006954539,17.600450585225364,0,Europe/Prague,0
12140,"Částkov, rozc.3.0",49.08916013059341,17.644870018702164,0,Europe/Prague,0
12150,"Vlčnov, Araver",49.021339614050255,17.571574230045517,0,Europe/Prague,0
12154,"Želechovice n.Dřev., Paseky",49.199173007324134,17.739402435088717,0,Europe/Prague,0
12173,"Hrobice, rest.",49.277391899874715,17.789905461579988,0,Europe/Prague,0
12188,"Kladeruby, ObÚ",49.49270480591496,17.8651500156414,0,Europe/Prague,0
12210,"Dobrkovice, rozc.1.0",49.09885944288437,17.660696297787453,0,Europe/Prague,0
12211,"Velký Ořechov, aut.st.",49.10939138047098,17.67065535644952,0,Europe/Prague,0
12212,"Hošťálková, Pod horou",49.34768789546555,17.82661564071688,0,Europe/Prague,0
12217,"Želechovice n.Dřev., škola",49.21720363966675,17.753987204299182,0,Europe/Prague,0
12218,"Březůvky, garáže",49.15022339020479,17.707435041681453,0,Europe/Prague,0
12220,"Želechovice n.Dřev., sklady",49.21760885031101,17.757598709133212,0,Europe/Prague,0
12241,"Prakšice, škola",49.07031242979355,17.635169162303146,0,Europe/Prague,0
12243,"Podolí, ObÚ",49.42999762134063,17.856494342437816,0,Europe/Prague,0
12252,"Pašovice, Obecní úřad",49.07886884101011,17.64481718191186,0,Europe/Prague,0
12253,"Vlčnov, dol.konec",49.0173678687678,17.57684952021641,0,Europe/Prague,0
12263,"Veselá, u školy",49.23673664643304,17.773680952473455,0,Europe/Prague,0
12274,"Prakšice, Obecní úřad",49.066098347509666,17.63398321954927,0,Europe/Prague,0
12276,"Březová, u kříže",49.260310055424696,17.788852988954936,0,Europe/Prague,0
12288,"Police, točna",49.45593779067871,17.866294511045087,0,Europe/Prague,0
12294,"Želechovice n.Dřev., Oborky",49.19347944201951,17.74718875380634,0,Europe/Prague,0
12296,"Hluk, Autopal",48.98198600324111,17.53652554546312,0,Europe/Prague,0
12300,"Hluk, záv.Sport",48.984512297320805,17.540335702965304,0,Europe/Prague,0
12304,"Dobrkovice, horní konec",49.09298081747077,17.663737786782555,0,Europe/Prague,0
12311,"Zlín, Klečůvka",49.227803274947995,17.772418974171558,0,Europe/Prague,0
12330,"Police, rozc.",49.44918846975378,17.867779341758272,0,Europe/Prague,0
12332,"Provodov, Březí",49.15858262778479,17.723788410412673,0,Europe/Prague,0
12334,Hřivínův Újezd,49.120289220299945,17.691430926298313,0,Europe/Prague,0
12356,"Dobrkovice, náves",49.09297733159999,17.669250419643387,0,Europe/Prague,0
12365,"Březová, Nové Dvory",49.26450757731319,17.79937656039604,0,Europe/Prague,0
12375,"Vlčnov, křiž.",49.010357894573694,17.581655499073808,0,Europe/Prague,0
12376,"Podkopná Lhota, Moravan",49.309002895651155,17.823624222301582,0,Europe/Prague,0
12386,"Vlčnov, Brodská",49.01005262209859,17.58295414465836,0,Europe/Prague,0
12399,Lípa,49.2139383092683,17.77060385693892,0,Europe/Prague,0
12410,"Hošťálková, Pod Kadlůbkem",49.351902912154486,17.845772862465264,0,Europe/Prague,0
12413,"Slušovice, výpočetní středisko",49.259115640126524,17.80051275928098,0,Europe/Prague,0
12419,"Vlčnov, sokolovna",49.00648850221661,17.581422288588605,0,Europe/Prague,0
12425,"Slušovice, zdrav.stř.",49.24885388478633,17.79537397764852,0,Europe/Prague,0
12428,"Veselá, rozc.1.0",49.23893681632967,17.789591503133227,0,Europe/Prague,0
12429,"Podkopná Lhota, u Jakubů",49.31006851238708,17.82868982490141,0,Europe/Prague,0
12433,"Želechovice n.Dřev., Kozačka",49.187609226253414,17.755830968045142,0,Europe/Prague,0
12440,"Loučka, Lázy, ObÚ",49.41646428405879,17.869709975106502,0,Europe/Prague,0
12441,"Provodov, rozc.",49.1597824097,17.7358932495,0,Europe/Prague,0
12445,"Provodov, Obecní úřad",49.16079268606297,17.73743799327494,0,Europe/Prague,0
12455,"Vlčnov, hor.konec",49.000724158898215,17.579593768181557,0,Europe/Prague,0
12461,"Slušovice, Dlouhá",49.24809330597731,17.79901026193388,0,Europe/Prague,0
12463,"Slušovice, přehrada",49.219479916762594,17.781078429133206,0,Europe/Prague,0
12490,Kaňovice,49.10896503890989,17.697056353128712,0,Europe/Prague,0
12494,Podkopná Lhota,49.304645250329024,17.831791937400844,0,Europe/Prague,0
12509,"Slušovice, náměstí",49.247778816002835,17.80173518288392,0,Europe/Prague,0
12511,"Provodov, Dvory",49.16418198742042,17.745831448514743,0,Europe/Prague,0
12513,"Ludkovice, hájenka",49.1301115813196,17.718124248863045,0,Europe/Prague,0
12517,"Uherský Brod, Havřice",49.03185019559683,17.62267399648684,0,Europe/Prague,0
12521,"Trnava, Jamice",49.27388712845979,17.81856079323799,0,Europe/Prague,0
12543,"Uherský Brod, Havřice, Dolní",49.030346696778665,17.62351166847945,0,Europe/Prague,0
12545,"Provodov, Maleniska",49.15323756650742,17.74116172738852,0,Europe/Prague,0
12553,"Trnava, Dolansko",49.27969318832361,17.82474625080985,0,Europe/Prague,0
12554,"Hošťálková, Salajka",49.3516927546349,17.85732135863478,0,Europe/Prague,0
12556,"Kaňovice, seče",49.10158450982531,17.69775262337533,0,Europe/Prague,0
12558,"Kateřinice, pod Vrtaným",49.390469019953585,17.87217678740737,0,Europe/Prague,0
12567,"Slušovice, škola",49.248933132524115,17.809439539954077,0,Europe/Prague,0
12568,"Ludkovice, Pradlisko",49.139538061344,17.73233529566825,0,Europe/Prague,0
12569,"Trnava, hájenka",49.284016097070236,17.828710420658467,0,Europe/Prague,0
12570,"Trnava, U lipek",49.29050921931736,17.83225683850214,0,Europe/Prague,0
12584,"Branky, náves",49.460845640046664,17.89263837366012,0,Europe/Prague,0
12585,"Provodov, Na zákrutě",49.166726772523965,17.755240684252858,0,Europe/Prague,0
12586,"Choryně, rozc.Lhota",49.49575238,17.89908273,0,Europe/Prague,0
12594,"Hošťálková, Kovex",49.35275374618983,17.861774301190028,0,Europe/Prague,0
12604,"Uherský Brod, Havřice, MŠ",49.02973257644794,17.62844311528736,0,Europe/Prague,0
12611,"Kateřinice, u mostu",49.389454074813884,17.87620367883604,0,Europe/Prague,0
12616,"Choryně, Jednota",49.49947950217707,17.90229040311049,0,Europe/Prague,0
12623,"Trnava, Fagus",49.30170348909069,17.842265486737734,0,Europe/Prague,0
12641,"Uherský Brod, Maršov, rozc.6.0",49.04458818123828,17.64932404215858,0,Europe/Prague,0
12645,"Provodov, Zabačky",49.171891003547785,17.764726632275817,0,Europe/Prague,0
12646,"Trnava, škola",49.29383317574901,17.840329492755085,0,Europe/Prague,0
12657,"Ludkovice, Pradlisko, rozc.Řetechov",49.13243987847338,17.734007120180316,0,Europe/Prague,0
12661,"Uherský Brod, Tovární",49.02869413613739,17.632687474006325,0,Europe/Prague,0
12668,"Trnava, rozc.",49.29899551256609,17.844266423565603,0,Europe/Prague,0
12669,"Želechovice n.Dřev., Zel.údolí",49.181492560201114,17.773467736567603,0,Europe/Prague,0
12677,"Neubuz, zast.",49.25620028194622,17.82190352448731,0,Europe/Prague,0
12691,"Hošťálková, tělocvična",49.35506427315747,17.8699117898738,0,Europe/Prague,0
12700,"Neubuz, Obecní úřad",49.26060376934272,17.82586024620338,0,Europe/Prague,0
12701,"Kateřinice, lom",49.386444744765825,17.881865633589445,0,Europe/Prague,0
12707,"Ludkovice, přehrada",49.12083636178397,17.72813603204718,0,Europe/Prague,0
12719,"Choryně, Agrochemický podnik",49.50473681733568,17.91112201186716,0,Europe/Prague,0
12722,"Trnava, pekárna",49.30150948491571,17.849989335422812,0,Europe/Prague,0
12729,"Zádveřice-Raková, Raková",49.2376701010367,17.815585166245583,0,Europe/Prague,0
12730,"Zádveřice-Raková, Raková, pálenice",49.22498080462737,17.80771567593858,0,Europe/Prague,0
12735,"Uherský Brod, ZŠ Na Výsluní",49.03072501819208,17.64279728139761,0,Europe/Prague,0
12736,"Uherský Brod, Na Chmelnici",49.031420025226524,17.640295520486738,0,Europe/Prague,0
12740,"Hošťálková, Jednota Obuv",49.35783703564309,17.875678896886782,0,Europe/Prague,0
12748,Ludkovice,49.113435803726645,17.726260769734225,0,Europe/Prague,0
12752,"Uherský Brod, nový hřbitov",49.03431029915157,17.648358045581972,0,Europe/Prague,0
12756,"Uherský Brod, Prakšická",49.031617585931464,17.645590237697284,0,Europe/Prague,0
12761,"Kateřinice, škola",49.38214026739661,17.886217826414015,0,Europe/Prague,0
12767,"Ludkovice, Paseky",49.10811836872937,17.723195839225077,0,Europe/Prague,0
12768,"Uherský Brod, sokolovna",49.02625485149553,17.640757054773484,0,Europe/Prague,0
12769,"Uherský Brod, stadion Lapač",49.03016774997546,17.645287704436562,0,Europe/Prague,0
12780,"Zádveřice-Raková, Zádveřice, Jednota",49.21659339101583,17.80785520865776,0,Europe/Prague,0
12781,"Zádveřice-Raková, Raková, dolní zast.",49.2312559650069,17.816842767077773,0,Europe/Prague,0
12789,"Dolní Němčí, dol.konec",48.96963611650763,17.57435840746341,0,Europe/Prague,0
12793,"Valašské Meziříčí, Lhota, dol.konec",49.48396311021166,17.9135331391894,0,Europe/Prague,0
12802,"Valašské Meziříčí, Lhota",49.479647628814696,17.913635127338008,0,Europe/Prague,0
12807,"Zádveřice-Raková, Zádveřice",49.21244377961716,17.806755670178294,0,Europe/Prague,0
12809,"Trnava, Papradná",49.30338966809364,17.8583592475412,0,Europe/Prague,0
12816,"Uherský Brod, Vlčnovská",49.01999357549369,17.63872328999454,0,Europe/Prague,0
12818,"Dešná, rozc.0.5",49.26959254139946,17.842356095022208,0,Europe/Prague,0
12825,"Uherský Brod, dopravní terminál",49.022239447479976,17.64306330790987,0,Europe/Prague,0
12826,"Uherský Brod, Mariánské náměstí",49.02578627365603,17.64532256824952,0,Europe/Prague,0
12828,"Oznice, konečná",49.43526519788703,17.906893912218607,0,Europe/Prague,0
12834,"Zádveřice-Raková, Zádveřice, paseky",49.203058801772514,17.803117466458485,0,Europe/Prague,0
12846,"Luhačovice, Řetechov",49.13041089268011,17.749578319926798,0,Europe/Prague,0
12847,"Mikulůvka, hájenka",49.40910055820717,17.90156249279355,0,Europe/Prague,0
12849,"Uherský Brod, poliklinika",49.02949643957021,17.652704601683332,0,Europe/Prague,0
12853,"Hošťálková, dol.zast.",49.360372570511515,17.885085950992224,0,Europe/Prague,0
12856,"Uherský Brod, Větrná",49.03241894369317,17.65592446223076,0,Europe/Prague,0
12858,"Biskupice, Obecní úřad",49.08407984859227,17.709182231614705,0,Europe/Prague,0
12861,"Lešná, Lhotka n.Bečvou, ZD",49.50328296622773,17.921809456864793,0,Europe/Prague,0
12864,Biskupice,49.08430445238235,17.70953152331351,0,Europe/Prague,0
12866,"Kateřinice, u Poláchů",49.37921081570642,17.893377684655743,0,Europe/Prague,0
12872,"Poličná, u háje",49.47448007032784,17.918738974823132,0,Europe/Prague,0
12881,"Uherský Brod, Slovácké náměstí",49.02065510182584,17.645699179024604,0,Europe/Prague,0
12883,Dešná,49.266945032250746,17.845976569099747,0,Europe/Prague,0
12886,"Dolní Němčí, škola",48.96972961007345,17.58463997994057,0,Europe/Prague,0
12892,"Uherský Brod, Osvoboditelů",49.02813385085425,17.655323641401672,0,Europe/Prague,0
12893,"Uherský Brod, Ant.Hrubého",49.02552526628267,17.652383973006323,0,Europe/Prague,0
12901,"Uherský Brod, ZŠ Pod Vinohrady",49.02581760709222,17.65386575344955,0,Europe/Prague,0
12902,"Ratiboř, Na hranici",49.36181142938783,17.890767041543295,0,Europe/Prague,0
12905,"Uherský Brod, Neradice",49.024261858627966,17.65263283995593,0,Europe/Prague,0
12910,"Dolní Němčí, náměstí",48.96810263491559,17.585524879342962,0,Europe/Prague,0
12915,"Branky, statek",49.463584866423474,17.920557327127298,0,Europe/Prague,0
12923,"Lešná, Lhotka n.Bečvou, rozc.",49.508548353497666,17.928091734154776,0,Europe/Prague,0
12927,"Kateřinice, dol.zast.",49.37794260798141,17.899199884596307,0,Europe/Prague,0
12929,"Lešná, pož.zbroj.",49.520019156030145,17.93045845131203,0,Europe/Prague,0
12941,"Uherský Brod, Obchodní",49.02847096547998,17.660732646984705,0,Europe/Prague,0
12944,"Lešná, ObÚ",49.51785689155006,17.93096840919503,0,Europe/Prague,0
12945,"Uherský Brod, Hlavní",49.02692372393287,17.659478455072062,0,Europe/Prague,0
12946,"Uherský Brod, Šumická",49.02480098919587,17.656562200771695,0,Europe/Prague,0
12953,"Lešná, škola",49.515257469071535,17.931553210356608,0,Europe/Prague,0
12954,"Uherský Brod, Močidla",49.02614646474757,17.659888777503575,0,Europe/Prague,0
12956,"Uherský Brod, zimní stadion",49.01844600300679,17.651767607179146,0,Europe/Prague,0
12957,"Oznice, škola",49.432421007208795,17.917286855794988,0,Europe/Prague,0
12960,"Všemina, hájenka",49.274439015428804,17.856886953079133,0,Europe/Prague,0
12971,"Mikulůvka, u Marků",49.410207109525814,17.9124966983853,0,Europe/Prague,0
12973,"Dolní Němčí, zdravotní středisko",48.96912726966093,17.593790381663624,0,Europe/Prague,0
12983,"Všemina, U Kachtíků",49.27727799450046,17.860585422475154,0,Europe/Prague,0
12989,"Uherský Brod, sídliště Olšava",49.01435108040985,17.650141512701836,0,Europe/Prague,0
13004,"Uherský Brod, u splavu",49.02710762001661,17.66575230051806,0,Europe/Prague,0
13007,"Lešná, Lhotka n.Bečvou, Prefa",49.50144506979754,17.934226609341955,0,Europe/Prague,0
13008,"Pozlovice, PV ZD",49.122683086135375,17.7584757300788,0,Europe/Prague,0
13009,"Ratiboř, hor.zast.",49.3657796959756,17.901601999990465,0,Europe/Prague,0
13015,"Biskupice, rozc.0.2",49.0763787939749,17.717657249999984,0,Europe/Prague,0
13016,"Uherský Brod, Nivnická",49.01367771425072,17.652429267676258,0,Europe/Prague,0
13029,"Mikulůvka, Čarabovská",49.413860808240344,17.918420849252087,0,Europe/Prague,0
13040,"Dolní Němčí, rozc.1.0",48.96835723356095,17.59997126510653,0,Europe/Prague,0
13047,"Luhačovice, Polichno",49.068144289209094,17.712078681059793,0,Europe/Prague,0
13049,"Horní Lhota, hájenka",49.1743973109523,17.802294569889877,0,Europe/Prague,0
13054,"Lešná, rozc.Vysoká",49.51230590554736,17.938830145522534,0,Europe/Prague,0
13056,Podhradí,49.13829084244726,17.775242669940564,0,Europe/Prague,0
13068,"Pozlovice, hor.konec",49.129664800770485,17.769147146036975,0,Europe/Prague,0
13069,"Všemina, Obecní úřad",49.27910001577987,17.868314772801334,0,Europe/Prague,0
13089,"Kateřinice, Na hranici",49.37304299394418,17.910022067221355,0,Europe/Prague,0
13091,"Pozlovice, střed",49.12670687183283,17.76827751143145,0,Europe/Prague,0
13096,"Lešná, Perná, střed",49.528234543031125,17.943604810919787,0,Europe/Prague,0
13104,"Valašské Meziříčí, Juřinka, rozc.",49.4859237671,17.9389724731,0,Europe/Prague,0
13109,"Luhačovice, Valaška",49.08896732441313,17.736603132694313,0,Europe/Prague,0
13110,"Luhačovice, Zahradní čtvrť",49.0942687988,17.7415218353,0,Europe/Prague,0
13111,"Uherský Brod, Slovácké strojírny",49.00446716685344,17.649212822327875,0,Europe/Prague,0
13113,"Pozlovice, dol.konec",49.12111930527923,17.765000224077152,0,Europe/Prague,0
13114,"Valašské Meziříčí, Juřinka, točna",49.488246846146225,17.93966070289401,0,Europe/Prague,0
13116,"Lešná, Lhotka n.Bečvou, prům.zóna",49.50431072839811,17.941825073967298,0,Europe/Prague,0
13119,"Lešná, Perná, farma ZD",49.5273530135744,17.944369221461095,0,Europe/Prague,0
13121,"Luhačovice, provozovna",49.091105973714114,17.738997369966953,0,Europe/Prague,0
13124,"Vizovice, Chrastěšov, Obecní dům",49.2496948242,17.8561058044,0,Europe/Prague,0
13140,"Oznice, u Klaniců",49.426020281761076,17.92894383528479,0,Europe/Prague,0
13144,"Vizovice, Chrastěšov, střed",49.24390134789138,17.854407627434384,0,Europe/Prague,0
13162,"Uherský Brod, Újezdec, žel.st.",49.033344562113236,17.685760193491827,0,Europe/Prague,0
13164,"Mikulůvka, rest.",49.41349878345491,17.9272872663546,0,Europe/Prague,0
13167,"Lešná, Vysoká, točna",49.51843882689695,17.947256222209,0,Europe/Prague,0
13168,"Poličná, točna",49.46598027135969,17.940053886374265,0,Europe/Prague,0
13174,"Starý Jičín, Janovice, křiž.",49.5604553223,17.9504814148,0,Europe/Prague,0
13175,"Všemina, U Fojtů",49.28096609770674,17.876629143947063,0,Europe/Prague,0
13176,"Luhačovice, u zámku",49.09676033159086,17.74901015977291,0,Europe/Prague,0
13179,"Starý Jičín, Petřkovice",49.5469055176,17.9503555298,0,Europe/Prague,0
13181,"Nivnice, Linea",48.99356058586564,17.642910642625054,0,Europe/Prague,0
13184,"Valašské Meziříčí, Juřinka, Hrb",49.4832038879,17.9440879822,0,Europe/Prague,0
13190,"Ratiboř, kino",49.367397740470324,17.916021410848,0,Europe/Prague,0
13202,"Luhačovice, aut.st.",49.0989970515474,17.752960324247752,0,Europe/Prague,0
13203,"Vizovice, Razov",49.213753699260366,17.84064912796059,0,Europe/Prague,0
13208,"Vizovice, Chrastěšov, dolní zast.",49.23818202285593,17.855818645344257,0,Europe/Prague,0
13210,"Lešná, Příluky, kaple",49.507717599554944,17.94921630799236,0,Europe/Prague,0
13222,"Luhačovice, Pražská čtvrť",49.11357636954839,17.76709571477995,0,Europe/Prague,0
13230,"Luhačovice, Jestřábí",49.110573389995395,17.765474947023666,0,Europe/Prague,0
13234,Boršice u Blatnice,48.93485247668325,17.571587355581975,0,Europe/Prague,0
13246,"Luhačovice, hřbitov",49.092796465502076,17.750498042031072,0,Europe/Prague,0
13248,"Nivnice, ZD",48.9848936151298,17.638178575646993,0,Europe/Prague,0
13251,"Pozlovice, přehrada",49.1204131470904,17.775034248836906,0,Europe/Prague,0
13257,"Valašské Meziříčí, Juřinka, u mostu",49.483745575,17.9489364624,0,Europe/Prague,0
13260,"Luhačovice, pošta",49.101968443881844,17.76020795105326,0,Europe/Prague,0
13261,"Luhačovice, garáže",49.110115955655665,17.768225608734348,0,Europe/Prague,0
13263,"Luhačovice, zotavovna Fontána",49.11534814407783,17.77235942403881,0,Europe/Prague,0
13266,"Poličná, střed",49.46650413816392,17.94635358666229,0,Europe/Prague,0
13268,"Všemina, Hořansko",49.28308213263136,17.884218394746743,0,Europe/Prague,0
13281,Horní Lhota,49.15484500974829,17.804715314715192,0,Europe/Prague,0
13296,"Lešná, Mštěnovice, Podboří",49.509279070059605,17.954937760926224,0,Europe/Prague,0
13299,"Mikulůvka, kolonie",49.41469208485995,17.936792399192658,0,Europe/Prague,0
13302,"Boršice u Blatnice, pošta",48.932380872173646,17.5748847883606,0,Europe/Prague,0
13309,"Starý Jičín, nám.",49.5769233704,17.9600219727,0,Europe/Prague,0
13312,"Vizovice, náměstí",49.22167050302872,17.85330721733806,0,Europe/Prague,0
13313,"Oznice, u Piskláků",49.42346588485999,17.940266575463085,0,Europe/Prague,0
13319,"Pozlovice, Nad přehradou",49.12064578795299,17.780587017696824,0,Europe/Prague,0
13332,"Lešná, Mštěnovice, škola",49.50697657394384,17.957440883407916,0,Europe/Prague,0
13333,"Ratiboř, STS",49.36903968184627,17.92490919138082,0,Europe/Prague,0
13337,"Starý Jičín, Jičina, kaple",49.5715179443,17.9621944427,0,Europe/Prague,0
13341,"Nivnice, u váhy",48.97889579058044,17.638906176235732,0,Europe/Prague,0
13342,"Lešná, Mštěnovice, CS CABOT",49.50287948,17.95750379,0,Europe/Prague,0
13347,"Poličná, škola",49.466646873459695,17.9516618460248,0,Europe/Prague,0
13348,"Vizovice, u transformátoru",49.21594901153288,17.85241476603752,0,Europe/Prague,0
13356,"Vizovice, Lázeňská točna",49.20465561888607,17.845648723313506,0,Europe/Prague,0
13358,"Všemina, točna",49.28491011600255,17.89191946384792,0,Europe/Prague,0
13361,"Vizovice, Lázeňská",49.2095019,17.8500456,0,Europe/Prague,0
13369,"Valašské Meziříčí, Uhelné sklady",49.48352371022553,17.95650003600049,0,Europe/Prague,0
13388,"Uherský Brod, Králov",49.01207297336711,17.68156391103747,0,Europe/Prague,0
13389,"Starý Jičín, škola",49.575920105,17.9659786224,0,Europe/Prague,0
13392,"Mikulůvka, rozc.",49.41679784094427,17.945187904834068,0,Europe/Prague,0
13395,"Valašské Meziříčí, DEZA I",49.49099659399108,17.959774666162126,0,Europe/Prague,0
13405,"Lešná, Jasenice, dol.konec",49.519362651397,17.963974365913845,0,Europe/Prague,0
13408,"Slavkov, křiž.",48.95138268736217,17.608869984477465,0,Europe/Prague,0
13418,"Nivnice, Beseda",48.97664382685861,17.643782286707847,0,Europe/Prague,0
13421,"Valašské Meziříčí, za drahou",49.468822695438966,17.95791504834591,0,Europe/Prague,0
13426,"Lešná, Jasenice, střed",49.52296167121302,17.965834189657535,0,Europe/Prague,0
13431,"Valašské Meziříčí, Hranická",49.482052245906765,17.961302283868495,0,Europe/Prague,0
13440,"Valašské Meziříčí, Křižná ul.rozc.",49.47179269374332,17.960481775113678,0,Europe/Prague,0
13441,"Lešná, Jasenice, točna",49.52535338685496,17.96747376785043,0,Europe/Prague,0
13447,"Pozlovice, Lipská",49.1240294335996,17.794853099095512,0,Europe/Prague,0
13453,"Valašské Meziříčí, žel.st.",49.47468904890209,17.96139233731024,0,Europe/Prague,0
13471,"Valašské Meziříčí, Tesco",49.4843410698152,17.965279694427885,0,Europe/Prague,0
13477,"Rudice, Obecní úřad",49.0603595454439,17.740957920272454,0,Europe/Prague,0
13479,"Vizovice, Říčanská",49.21224416970115,17.861156761636895,0,Europe/Prague,0
13483,"Valašské Meziříčí, sokolovna",49.4701143003802,17.963422514741488,0,Europe/Prague,0
13486,"Rudice, střed",49.0565277974845,17.73761955292973,0,Europe/Prague,0
13489,"Valašské Meziříčí, hřbitov",49.4831008911,17.966255188,0,Europe/Prague,0
13497,"Slavkov, Obecní úřad",48.945294187449804,17.612078492911643,0,Europe/Prague,0
13501,"Valašské Meziříčí, škola Křižná",49.47275825976574,17.96493942054673,0,Europe/Prague,0
13502,"Dolní Lhota, zast.",49.13180575102195,17.806108702201144,0,Europe/Prague,0
13506,"Luhačovice, Kladná Žilín, paseky",49.08464574381894,17.765450989095545,0,Europe/Prague,0
13508,"Nivnice, škola",48.9736382953092,17.648004008766627,0,Europe/Prague,0
13511,"Šumice, dol.konec",49.02852183008145,17.711551127315104,0,Europe/Prague,0
13512,Dolní Lhota,49.1384937678162,17.8116532312828,0,Europe/Prague,0
13516,"Valašské Meziříčí, Bynina, dolní konec",49.4924507141,17.9695014954,0,Europe/Prague,0
13518,"Valašské Meziříčí, Nádražní ul.",49.47636620646361,17.96705872877704,0,Europe/Prague,0
13525,"Rudice, Nezdenské drahy",49.05355231210053,17.73833252525643,0,Europe/Prague,0
13528,"Valašské Meziříčí, prov.ČSAD",49.463899838256864,17.96595241270557,0,Europe/Prague,0
13529,"Jablůnka, u Matuštíků",49.40908942175592,17.95341748251207,0,Europe/Prague,0
13533,"Nový Jičín, Loučka, Žlabec",49.5803604126,17.9774627686,0,Europe/Prague,0
13534,"Liptál, Na Špici",49.29197765671609,17.909874051811865,0,Europe/Prague,0
13538,"Rudice, točna",49.06182204754663,17.747600946745923,0,Europe/Prague,0
13541,"Valašské Meziříčí, Masarykova rozc.",49.47803027307787,17.96914129490515,0,Europe/Prague,0
13546,Lutonina,49.23934485742955,17.882697353881802,0,Europe/Prague,0
13549,"Valašské Meziříčí, Podlesí, Dom.důch.",49.42564293914192,17.959097782786134,0,Europe/Prague,0
13551,"Valašské Meziříčí, stan.MHD u náměstí",49.4711303711,17.9687480927,0,Europe/Prague,0
13553,"Lutonina, most",49.23869365418003,17.88277563472257,0,Europe/Prague,0
13559,"Jablůnka, rest.Na papírně",49.38762388048491,17.94938712345817,0,Europe/Prague,0
13560,"Valašské Meziříčí, Bynina, Jednota",49.4959030151,17.9736404419,0,Europe/Prague,0
13563,"Bystřička, žel.st.",49.41809956889436,17.958507504832898,0,Europe/Prague,0
13567,"Jablůnka, kolonie",49.38976907855711,17.950348446924203,0,Europe/Prague,0
13571,"Jasenná, horní zast.",49.257882442009304,17.895341614360685,0,Europe/Prague,0
13572,"Jablůnka, hor.zast.",49.381003988735834,17.94866027357573,0,Europe/Prague,0
13573,"Valašské Meziříčí, škola Masarykova",49.47510990710076,17.97127669538187,0,Europe/Prague,0
13577,"Jablůnka, rozc.Ratiboř",49.37203377394015,17.94573244449215,0,Europe/Prague,0
13578,"Jasenná, Syrákov",49.27379790797899,17.90429210665577,0,Europe/Prague,0
13581,"Nový Jičín, Loučka, ZD",49.5840110779,17.9812965393,0,Europe/Prague,0
13585,"Valašské Meziříčí, Bynina, horní konec",49.5001220703,17.976348877,0,Europe/Prague,0
13589,"Jasenná, dolní zast.",49.251879877059906,17.89400303360169,0,Europe/Prague,0
13590,"Jarcová, ObÚ",49.4462997178114,17.967909345325438,0,Europe/Prague,0
13592,"Valašské Meziříčí, Podlesí, rest.",49.4375648499,17.9664287567,0,Europe/Prague,0
13593,Sehradice,49.144508906009,17.825100417159575,0,Europe/Prague,0
13595,"Nový Jičín, Loučka, rozc.",49.5856539332,17.9829947475,0,Europe/Prague,0
13596,"Valašské Meziříčí, u aut.st.",49.4749336,17.9741669,0,Europe/Prague,0
13597,"Valašské Meziříčí, aut.st.",49.4743270874,17.9740695953,0,Europe/Prague,0
13604,"Valašské Meziříčí, Vsetínská",49.468686582428234,17.9732514953549,0,Europe/Prague,0
13612,"Šumice, škola",49.02816169956762,17.72198994327406,0,Europe/Prague,0
13620,"Valašské Meziříčí, Podlesí, Drážky",49.45413657232172,17.972254235214074,0,Europe/Prague,0
13623,"Valašské Meziříčí, rozc.k nem.",49.46014456047591,17.97308448250627,0,Europe/Prague,0
13626,"Bystřička, pošta",49.41751959931733,17.963837478844486,0,Europe/Prague,0
13627,"Valašské Meziříčí, Bynina, točna",49.50212067662032,17.98031990995609,0,Europe/Prague,0
13629,"Vsetín, Semetín",49.3347320557,17.9365539551,0,Europe/Prague,0
13634,"Nový Jičín, Loučka, Koruna",49.5887680054,17.9854469299,0,Europe/Prague,0
13638,"Valašské Meziříčí, nemocnice",49.463530251993106,17.97738535446796,0,Europe/Prague,0
13647,"Šumice, žel.st.",49.0300254822,17.7258815765,0,Europe/Prague,0
13649,"Jarcová, rozc.",49.44421429590769,17.971344590196843,0,Europe/Prague,0
13653,"Valašské Meziříčí, Tesla I",49.4754905701,17.9776725769,0,Europe/Prague,0
13655,"Liptál, rozc.Sadová",49.290580675781044,17.919641026602804,0,Europe/Prague,0
13664,"Valašské Meziříčí, škola Šafaříkova",49.46646706844419,17.977355101176727,0,Europe/Prague,0
13668,"Valašské Meziříčí, u nemocnice",49.463394542726455,17.974542096918558,0,Europe/Prague,0
13677,"Petrůvka, paseky",49.10806227850982,17.801938039881122,0,Europe/Prague,0
13679,"Liptál, Lůžko",49.27665359708839,17.91397493234566,0,Europe/Prague,0
13682,"Valašské Meziříčí, Podlesí, Brdky",49.451694279742256,17.97573008372057,0,Europe/Prague,0
13689,"Valašské Meziříčí, Smetanova ul.rozc.",49.4656677246,17.9788322449,0,Europe/Prague,0
13691,"Luhačovice, Kladná Žilín, hor.zast.",49.087643439719386,17.78517500714346,0,Europe/Prague,0
13692,"Valašské Meziříčí, Rožnovská",49.47710601413976,17.982212434082022,0,Europe/Prague,0
13698,Lhotsko,49.21315046084587,17.88007076322511,0,Europe/Prague,0
13707,"Horní Němčí, váha",48.93664237386272,17.621320356592705,0,Europe/Prague,0
13709,"Sehradice, zast.",49.147635341537004,17.834265271302492,0,Europe/Prague,0
13710,"Nový Jičín, Loučka, kolonie",49.5842056274,17.9904956818,0,Europe/Prague,0
13717,"Jablůnka, záv.",49.39125342620567,17.963478164239735,0,Europe/Prague,0
13719,"Valašské Meziříčí, Podlesí, točna",49.45372829519144,17.97830524926002,0,Europe/Prague,0
13744,"Valašské Meziříčí, Na Štěpánově samoobsluha",49.4643096924,17.9819602966,0,Europe/Prague,0
13746,"Rudice, Jalovčí",49.045478121209605,17.749365175943215,0,Europe/Prague,0
13748,"Valašské Meziříčí, sklárny",49.47603321154993,17.984134136027595,0,Europe/Prague,0
13750,"Nový Jičín, Loučka, kaštany",49.591381073,17.9929218292,0,Europe/Prague,0
13751,"Liptál, ZŠ",49.29140358351666,17.92579996590652,0,Europe/Prague,0
13752,"Vsetín, Semetín, bike aréna",49.3602104187,17.9542980194,0,Europe/Prague,0
13757,"Šumice, hor.konec",49.0292663574,17.7336368561,0,Europe/Prague,0
13759,"Bratřejov, Na Chrámečném",49.22082761698624,17.887909718624947,0,Europe/Prague,0
13760,"Vsetín, Semetín, Mařička",49.3384144326,17.946659568,0,Europe/Prague,0
13766,"Luhačovice, Kladná Žilín",49.08653620122346,17.7896841609805,0,Europe/Prague,0
13771,"Liptál, střed",49.29012466533875,17.926747278703687,0,Europe/Prague,0
13774,"Vsetín, Semetín, střed",49.3457489014,17.9508857727,0,Europe/Prague,0
13777,"Valašské Meziříčí, Šafaříkova ul.",49.4654884338,17.9846324921,0,Europe/Prague,0
13778,"Vsetín, Semetín, kemp",49.3535614014,17.9540176392,0,Europe/Prague,0
13780,Slopné,49.15547350871194,17.846504729291368,0,Europe/Prague,0
13786,Horní Němčí,48.9332949760012,17.624039600843513,0,Europe/Prague,0
13794,"Vsetín, Semetín, hřiště",49.349521637,17.9534091949,0,Europe/Prague,0
13803,"Ublo, zast.",49.23496634309954,17.89896442244661,0,Europe/Prague,0
13804,Petrůvka,49.10643143014403,17.809208248266433,0,Europe/Prague,0
13806,"Valašské Meziříčí, Na Štěpánově točna",49.46282959619138,17.985533969399334,0,Europe/Prague,0
13811,"Nový Jičín, Bohuslava Martinů Monta",49.5912537119,17.9967642604,0,Europe/Prague,0
13814,"Bystřička, ObÚ",49.41576378076408,17.97551986058331,0,Europe/Prague,0
13818,"Nový Jičín, Palackého garáže",49.5920126915,17.9975062478,0,Europe/Prague,0
13824,"Bojkovice, Přečkovice",49.07133415032213,17.78010021398792,0,Europe/Prague,0
13832,"Krhová, točna",49.50080054529214,17.992916738779932,0,Europe/Prague,0
13838,"Krhová, Lipta",49.4937442968476,17.99296904665772,0,Europe/Prague,0
13846,"Krhová, u přejezdu",49.47755542865628,17.991120591760176,0,Europe/Prague,0
13848,"Valašské Meziříčí, Na Štěpánově II",49.4645042419,17.98919487,0,Europe/Prague,0
13850,"Nový Jičín, Bocheta",49.5842208862,18.0001945496,0,Europe/Prague,0
13852,"Krhová, Jednota",49.48850686613697,17.993377431114773,0,Europe/Prague,0
13867,"Horní Němčí, točna",48.930008901079496,17.62700578429917,0,Europe/Prague,0
13873,"Slopné, Na Výpustě",49.15645759598206,17.853694188763484,0,Europe/Prague,0
13875,"Krhová, u hřiště",49.48121936259543,17.99394849672313,0,Europe/Prague,0
13876,"Valašské Meziříčí, Podlesí, u Kamasů",49.436698985593466,17.985693569316417,0,Europe/Prague,0
13883,"Krhová, rest.",49.48422680293708,17.994572460818446,0,Europe/Prague,0
13887,"Nový Jičín, B.Martinů Kaufland",49.5860781,18.0031661,0,Europe/Prague,0
13889,"Nový Jičín, Palackého gymnázium",49.5937377558,18.0030996933,0,Europe/Prague,0
13892,"Liptál, Dolansko, obec",49.29741015594473,17.939471095775804,0,Europe/Prague,0
13894,"Suchá Loz, Volenov, rozc.1.0",48.9657078987713,17.67507409477464,0,Europe/Prague,0
13905,"Liptál, Dolansko",49.29587600125779,17.939271904955568,0,Europe/Prague,0
13913,"Valašské Meziříčí, Beskydská",49.4644393921,17.9942378998,0,Europe/Prague,0
13923,"Ublo, MŠ",49.22930753722215,17.906181909562374,0,Europe/Prague,0
13933,"Suchá Loz, Volenov",48.967573288793,17.681040163041057,0,Europe/Prague,0
13935,"Bánov, u kapličky",48.994608970521185,17.711737326451974,0,Europe/Prague,0
13937,"Vsetín, Vesník",49.360017146863385,17.96823247799786,0,Europe/Prague,0
13945,"Bystřička, škola",49.41518802424866,17.986199112043696,0,Europe/Prague,0
13951,"Nový Jičín, nem.",49.5891561,18.00821,0,Europe/Prague,0
13956,"Růžďka, u Lašků",49.405358865966264,17.98401707698366,0,Europe/Prague,0
13962,"Hostašovice, hájovna",49.5105895996,18.0050106049,0,Europe/Prague,0
13970,"Vsetín, průmyslová zóna I",49.35646774769496,17.96956320574673,0,Europe/Prague,0
13974,"Liptál, rozc.Hluboké",49.30053949166506,17.94755184647862,0,Europe/Prague,0
13975,"Nový Jičín, aut.nádr.",49.5967445374,18.0098762512,0,Europe/Prague,0
13981,"Valašské Meziříčí, Hrachovec, u Zetků",49.4575767517,17.9987506866,0,Europe/Prague,0
13989,"Valašské Meziříčí, Hrachovec, rozc.",49.4637145996,18.0002040863,0,Europe/Prague,0
14001,"Lhota u Vsetína, Na hranici",49.299238138198874,17.949098467852235,0,Europe/Prague,0
14004,Bratřejov,49.22646534727475,17.91113214916932,0,Europe/Prague,0
14006,"Nový Jičín, Karla Kryla",49.5925254822,18.0118579865,0,Europe/Prague,0
14013,"Valašské Meziříčí, Hrachovec, lom",49.45403920603688,18.000161929801145,0,Europe/Prague,0
14016,"Nový Jičín, Sokolovská",49.5954551697,18.012802124,0,Europe/Prague,0
14017,"Valašské Meziříčí, Hrachovec, kult.dům",49.4655838013,18.0024852753,0,Europe/Prague,0
14018,"Korytná, dol.konec",48.946096877213975,17.662963342545975,0,Europe/Prague,0
14030,"Bánov, náměstí",48.9899262187489,17.715610156458066,0,Europe/Prague,0
14035,"Nezdenice, žel.st.",49.0214930598184,17.750315307612677,0,Europe/Prague,0
14038,"Nezdenice, státní statek",49.02309419437696,17.75230472646465,0,Europe/Prague,0
14042,"Loučka, náves",49.169157594632786,17.87739327907088,0,Europe/Prague,0
14052,"Valašské Meziříčí, Hrachovec, cihelna",49.47494848662,18.00702472688452,0,Europe/Prague,0
14053,"Horní Němčí, Dubníček",48.93026454310768,17.64513429130752,0,Europe/Prague,0
14054,"Valašské Meziříčí, Hrachovec, ZD",49.4693527222,18.0055503845,0,Europe/Prague,0
14055,"Loučka, škola",49.167522950780125,17.877131179046636,0,Europe/Prague,0
14056,"Nový Jičín, Tonak",49.5907363892,18.0153598785,0,Europe/Prague,0
14062,"Vsetín, Janišov",49.3286857605,17.9654407501,0,Europe/Prague,0
14063,"Růžďka, Masna",49.397022281875806,17.98905241960428,0,Europe/Prague,0
14066,"Vsetín, Lázky",49.34953819465141,17.973735423389705,0,Europe/Prague,0
14070,"Valašské Meziříčí, Hrachovec, točna",49.4722175598,18.006816864,0,Europe/Prague,0
14072,"Bánov, Obecní úřad",48.9878923415538,17.71672756965364,0,Europe/Prague,0
14086,"Bojkovice, Seče",49.05132162717094,17.783725730291135,0,Europe/Prague,0
14090,"Hostašovice, Domoraz",49.5225067139,18.0149097443,0,Europe/Prague,0
14097,"Bratřejov, Obecní úřad",49.22137592222057,17.914432491104503,0,Europe/Prague,0
14102,"Lhota u Vsetína, U Jakšíků",49.3046245515035,17.95787832140198,0,Europe/Prague,0
14104,"Vsetín, Trávníky, točna",49.347064620627414,17.975352026295166,0,Europe/Prague,0
14107,"Nezdenice, pohostinství Jednota",49.0210992285267,17.756169462565595,0,Europe/Prague,0
14117,Lhota u Vsetína,49.30408367507751,17.95910507439413,0,Europe/Prague,0
14123,"Korytná, střed",48.941082737327726,17.665547904554586,0,Europe/Prague,0
14128,"Loučka, Domov pro Seniory",49.16935656033485,17.883656521045097,0,Europe/Prague,0
14141,"Nový Jičín, Bludovice, Fojtství",49.5741157532,18.0210208893,0,Europe/Prague,0
14148,"Lhota u Vsetína, ZŠ",49.30855538318801,17.963045269770625,0,Europe/Prague,0
14164,"Suchá Loz, ZD",48.969802423682566,17.704081952177958,0,Europe/Prague,0
14165,"Hodslavice, U viaduktu",49.5575485229,18.0225467682,0,Europe/Prague,0
14181,"Hodslavice, nákup.stř.",49.53748398895271,18.0226190686302,0,Europe/Prague,0
14184,"Vsetín, Rybníky",49.3400688171,17.9786643982,0,Europe/Prague,0
14185,"Bystřička, farma ZD",49.416422476042754,18.003203922624422,0,Europe/Prague,0
14190,"Vsetín, Janišov, střed",49.3246078491,17.9732685089,0,Europe/Prague,0
14195,"Bratřejov, točna",49.217205267997414,17.91968456994058,0,Europe/Prague,0
14196,"Lhota u Vsetína, Dolansko",49.309916026460854,17.967358123257767,0,Europe/Prague,0
14197,"Slavičín, Nevšová",49.108261598281416,17.843063169073798,0,Europe/Prague,0
14199,"Bánov, Dřevoděl",48.985833486174364,17.725511966465113,0,Europe/Prague,0
14203,"Růžďka, vozovna ČSAD",49.3925242670103,17.998077442699977,0,Europe/Prague,0
14205,"Nový Jičín, Bludovice, česká škola",49.5648269653,18.0255794525,0,Europe/Prague,0
14215,"Vsetín, archiv",49.3458633423,17.9831352234,0,Europe/Prague,0
14217,"Vsetín, Rybníky, Družstevní",49.34027814979175,17.98108926853889,0,Europe/Prague,0
14220,"Zašová, pod Zapadlým",49.473380722317636,18.017191691141246,0,Europe/Prague,0
14222,"Hodslavice, dolní konec",49.5500526428,18.0260429382,0,Europe/Prague,0
14223,"Korytná, hor.konec",48.936622165583785,17.668717074051415,0,Europe/Prague,0
14231,"Vsetín, Technické služby",49.34259371,17.983746,0,Europe/Prague,0
14233,"Lhota u Vsetína, Kapka resort",49.311841384736525,17.971533605360843,0,Europe/Prague,0
14247,"Vsetín, Rokytnice, Irisa",49.317266970352286,17.975365443197315,0,Europe/Prague,0
14248,"Vsetín, Benátky, škola",49.33769384563957,17.983262350344393,0,Europe/Prague,0
14257,"Vsetín, Trávníky",49.340293989076116,17.984996247651527,0,Europe/Prague,0
14259,Suchá Loz,48.96988328112694,17.713326550688464,0,Europe/Prague,0
14263,"Záhorovice, dol.konec",49.02239273786156,17.770961610475474,0,Europe/Prague,0
14265,"Suchá Loz, Volenov, dětský tábor",48.94999097465026,17.69034229005944,0,Europe/Prague,0
14279,"Rudimov, točna",49.073571950482176,17.821473715344233,0,Europe/Prague,0
14280,"Slavičín, Nevšová, rozc.1.5",49.095561904309456,17.840551006023134,0,Europe/Prague,0
14283,"Velká Lhota, Malá Lhota, rozc.",49.441486659832144,18.01705619219814,0,Europe/Prague,0
14285,"Vsetín, Trávníky, škola",49.34075359422703,17.98731279808912,0,Europe/Prague,0
14288,"Seninka, Hořansko",49.27089527264352,17.956930924299176,0,Europe/Prague,0
14290,"Vsetín, Janišov, rozcestí",49.3198890686,17.9792976379,0,Europe/Prague,0
14303,"Vsetín, Rokytnice, hor.zast.",49.32287604221126,17.981363758337224,0,Europe/Prague,0
14304,Rudimov,49.07953676251253,17.828041944834055,0,Europe/Prague,0
14305,"Bystřička, u Nováků",49.41669665823255,18.01259666873072,0,Europe/Prague,0
14306,"Vsetín, Benátky, rozcestí",49.336312558710084,17.98691783802023,0,Europe/Prague,0
14308,"Vsetín, Rokytnice, střed",49.3276519775,17.9834747314,0,Europe/Prague,0
14309,"Vsetín, 4.května",49.34234026555937,17.989529054864022,0,Europe/Prague,0
14310,"Vsetín, Trávníky, mateřská škola",49.3387899147,17.9878561652,0,Europe/Prague,0
14320,"Rudimov, u bytovky",49.08054984294016,17.830529034691956,0,Europe/Prague,0
14321,"Vsetín, Rokytnice",49.333113253589744,17.987027414895564,0,Europe/Prague,0
14324,"Zašová, rozc.Veselá",49.4710491201824,18.02567678686477,0,Europe/Prague,0
14325,"Vsetín, Rokytnice, sídliště",49.33057082363178,17.986276659073773,0,Europe/Prague,0
14333,"Újezd, škola",49.17260551415564,17.902775401832034,0,Europe/Prague,0
14341,"Vsetín, Rokytnice, Kotovo",49.33241228807167,17.987835021223376,0,Europe/Prague,0
14346,"Růžďka, Holešov",49.388666887200664,18.007702737922596,0,Europe/Prague,0
14353,"Vsetín, Rokytnice, škola",49.3301233440374,17.987950356448746,0,Europe/Prague,0
14358,"Vsetín, Dolní Jasenka",49.34297222,17.99321697,0,Europe/Prague,0
14361,Záhorovice,49.0227415027069,17.777914419370937,0,Europe/Prague,0
14367,"Vsetín, Dolní náměstí",49.339826721421844,17.993272395289335,0,Europe/Prague,0
14369,"Vsetín, Jasenka, sídliště",49.34869309432015,17.996753594562144,0,Europe/Prague,0
14370,"Bojkovice, Fučíkova čtvrť",49.03955888783254,17.796493767666753,0,Europe/Prague,0
14375,"Zašová, Veselá, střed",49.45996529147577,18.027847351039448,0,Europe/Prague,0
14379,"Zašová, Veselá, dol.konec",49.46362834176816,18.02897725254089,0,Europe/Prague,0
14380,"Vsetín, Jasenka, Pod Babykou",49.35412520327694,17.999838650951812,0,Europe/Prague,0
14381,"Záhorovice, hor.konec",49.023722577698464,17.782598439133235,0,Europe/Prague,0
14383,"Vsetín, Jasenka, hřiště",49.35909127236688,18.00174381155525,0,Europe/Prague,0
14387,Újezd,49.16871664807782,17.905067294421666,0,Europe/Prague,0
14390,"Bojkovice, žel.st.",49.03574700888154,17.795533318147594,0,Europe/Prague,0
14395,"Bystřička, přehrada",49.4212082463752,18.02151911517292,0,Europe/Prague,0
14401,"Rudimov, Jankulka",49.08038960276011,17.838980020476484,0,Europe/Prague,0
14408,"Pozděchov, Václavák",49.22775050548439,17.944822669005006,0,Europe/Prague,0
14412,"Vsetín, Jasenka, zastávka",49.363591824686445,18.006867557214242,0,Europe/Prague,0
14413,"Seninka, pošta",49.27355900009276,17.969730255700842,0,Europe/Prague,0
14419,"Vsetín, aut.nádr.",49.334989318927384,17.995732486217744,0,Europe/Prague,0
14426,"Vsetín, Horní náměstí",49.3409347534,17.9995956421,0,Europe/Prague,0
14428,"Haluzice, rozc.1.0",49.13709868152042,17.886899796536788,0,Europe/Prague,0
14436,"Vsetín, Sychrov",49.33930994736086,18.00091883972756,0,Europe/Prague,0
14445,"Bojkovice, škola",49.03915592024663,17.80634147805266,0,Europe/Prague,0
14447,"Horní Němčí, rozc.Javořina 11.0",48.91277597953458,17.663562607990603,0,Europe/Prague,0
14449,"Bojkovice, sokolovna",49.037123616896466,17.804717853733347,0,Europe/Prague,0
14450,"Velká Lhota, u kříže",49.4418675891615,18.03248557724268,0,Europe/Prague,0
14459,"Újezd, pekárna",49.1711116871075,17.9152239583538,0,Europe/Prague,0
14461,Lipová,49.12175875796193,17.879749355437283,0,Europe/Prague,0
14462,"Rudimov, rozc.3.0",49.088971005795045,17.85320313045075,0,Europe/Prague,0
14470,"Vsetín, Smetanova",49.33370571064345,18.00178331135492,0,Europe/Prague,0
14481,"Prlov, obec",49.243402198619364,17.960729271207857,0,Europe/Prague,0
14483,"Zašová, konečná",49.48578583492281,18.042827585879117,0,Europe/Prague,0
14484,"Bojkovice, Světlov",49.02878712412735,17.80017681183336,0,Europe/Prague,0
14486,"Pozděchov, obec",49.233951747036585,17.955479441852418,0,Europe/Prague,0
14492,"Vsetín, Horní Jasenka",49.36658572128812,18.01503224137944,0,Europe/Prague,0
14494,"Bystřička, Dolinky",49.421167031895656,18.030061917934233,0,Europe/Prague,0
14495,"Vsetín, Ohrada",49.33053311442474,18.001954317047566,0,Europe/Prague,0
14501,"Vsetín, Ohrada, restaurace",49.3306224134,18.0025970079,0,Europe/Prague,0
14504,"Seninka, rest.",49.274969613577056,17.978409912625036,0,Europe/Prague,0
14506,"Zašová, Stračka",49.48149870818535,18.043625620356618,0,Europe/Prague,0
14507,"Zašová, zdrav.stř.",49.472203781472345,18.04239209931151,0,Europe/Prague,0
14510,"Bojkovice, obchodní dům",49.037203765307574,17.81080220537294,0,Europe/Prague,0
14511,"Velká Lhota, točna",49.43203669831899,18.034599331277963,0,Europe/Prague,0
14513,"Vsetín, Ohrada, sportovní areál",49.3270062525,18.002205695,0,Europe/Prague,0
14515,"Zašová, škola",49.47690700972098,18.04350500820703,0,Europe/Prague,0
14526,"Vsetín, Jasenka, Lom",49.375748207950146,18.02031652263413,0,Europe/Prague,0
14530,Haluzice,49.138127710881015,17.89783826935395,0,Europe/Prague,0
14532,"Lipová, Losky",49.116567320785286,17.881225561835084,0,Europe/Prague,0
14533,"Zašová, žel.st.",49.46763868500527,18.04300423169885,0,Europe/Prague,0
14542,"Bojkovice, u lékárny",49.039057660174315,17.81468319237607,0,Europe/Prague,0
14552,"Velká Lhota, kostel",49.43644469192736,18.039394152141877,0,Europe/Prague,0
14555,"Vsetín, Luh I",49.33333818101621,18.00850793547007,0,Europe/Prague,0
14559,"Bojkovice, Zeveta",49.04287154,17.82089472,0,Europe/Prague,0
14561,"Bystřice p.Lop., dol.zast.",48.97513858886882,17.751494119583953,0,Europe/Prague,0
14563,"Slavičín, Luhačovská",49.08785888044514,17.861314824286783,0,Europe/Prague,0
14564,"Bojkovice, Bezručova čtvrť",49.03270588274981,17.811324410958072,0,Europe/Prague,0
14573,"Růžďka, Dušná, serpentiny",49.379083158519094,18.0255596390267,0,Europe/Prague,0
14610,"Ústí, pož.zbroj.",49.30597135302127,18.002852457631114,0,Europe/Prague,0
14617,"Velká Lhota, Na Kútě",49.43781214109127,18.045802981750683,0,Europe/Prague,0
14620,"Ústí, rozc.",49.31052738238986,18.005386000487302,0,Europe/Prague,0
14626,"Prlov, chata",49.24228591206881,17.97374140336562,0,Europe/Prague,0
14629,"Malá Bystřice, u Melichaříků",49.41848184878662,18.042514122010534,0,Europe/Prague,0
14630,"Pozděchov, točna",49.225247384854754,17.964230060595153,0,Europe/Prague,0
14632,"Ústí, točna",49.300081329504756,18.002257836915646,0,Europe/Prague,0
14635,"Slavičín, Lukšín",49.09015345960671,17.871547343948414,0,Europe/Prague,0
14636,"Vsetín, Luh II",49.33494447077738,18.016998586710763,0,Europe/Prague,0
14646,Vysoké Pole,49.177583785919985,17.937324633288252,0,Europe/Prague,0
14653,"Slavičín, U kostela",49.09368210812451,17.87556302698363,0,Europe/Prague,0
14654,"Leskovec, Na čtvrti",49.29115675228971,17.99985006449984,0,Europe/Prague,0
14655,"Seninka, u stodoly",49.27374426492281,17.992050156567622,0,Europe/Prague,0
14656,"Leskovec, ObÚ",49.28589017332783,17.99831739461691,0,Europe/Prague,0
14666,"Malá Bystřice, rest.U Bušů",49.41836694338876,18.045758431758266,0,Europe/Prague,0
14670,"Střítež n.Bečvou, rozc.",49.46566569954696,18.056400091158107,0,Europe/Prague,0
14675,"Bystřice p.Lop., zvonice",48.97490191746725,17.764517197790983,0,Europe/Prague,0
14683,"Růžďka, Dušná, rest.",49.38233594088833,18.037777636857484,0,Europe/Prague,0
14688,"Střítež n.Bečvou, hotel Květoň",49.45842670382603,18.05682051878662,0,Europe/Prague,0
14706,"Vysoké Pole, rozc.Drnovice",49.1775408,17.94255506,0,Europe/Prague,0
14708,"Vsetín, Luh III",49.33711036735514,18.024887823984702,0,Europe/Prague,0
14729,"Malá Bystřice, škola",49.4091031439723,18.0484302061695,0,Europe/Prague,0
14732,"Velká Lhota, Na Blatném",49.420623961301814,18.051407817830057,0,Europe/Prague,0
14735,"Slavičín, Radnice",49.088378208720876,17.878015785589692,0,Europe/Prague,0
14736,"Bystřice p.Lop., hor.zast.",48.970539735097915,17.7648158674344,0,Europe/Prague,0
14740,"Březová, rozc.3.0",48.92754280187202,17.714703175700848,0,Europe/Prague,0
14741,"Valašská Polanka, Veřečné",49.26902433852841,17.99718863723271,0,Europe/Prague,0
14745,"Prlov, Neratov, rozc.",49.24446414817859,17.98530085211418,0,Europe/Prague,0
14746,"Růžďka, Dušná, rozc.Cáb",49.384714549746604,18.043150210816204,0,Europe/Prague,0
14747,"Seninka, rozc.",49.273643659796875,18.000093632868634,0,Europe/Prague,0
14749,"Drnovice, škola",49.17818060867376,17.94634219804504,0,Europe/Prague,0
14756,"Slavičín, ZŠ Vlára",49.0905736901267,17.881182880059452,0,Europe/Prague,0
14759,"Vysoké Pole, Podpolí",49.16971277894702,17.942307513491826,0,Europe/Prague,0
14764,"Malá Bystřice, rest.U Kočibů",49.40270750673574,18.05035912114852,0,Europe/Prague,0
14765,"Valašská Polanka, ObÚ",49.26263542585462,17.99688073216071,0,Europe/Prague,0
14771,"Vsetín, Jasenice, technické služby",49.3382125255581,18.030523941418064,0,Europe/Prague,0
14778,"Slavičín, Vlára",49.08950211299594,17.884952610144822,0,Europe/Prague,0
14781,"Střítež n.Bečvou, kostel",49.456783934988096,18.06446860873933,0,Europe/Prague,0
14787,"Valašská Polanka, škola",49.257302976796595,17.996481579115933,0,Europe/Prague,0
14788,"Janová, rozc.",49.309294950976046,18.0205024534671,0,Europe/Prague,0
14791,"Janová, u mostu",49.31049438692044,18.021414701223353,0,Europe/Prague,0
14800,"Slavičín, U Hotelu",49.08375941736923,17.88259323191707,0,Europe/Prague,0
14813,Komňa,48.99391890853611,17.800369066602343,0,Europe/Prague,0
14817,"Velká Lhota, U Pavlů",49.42073188965348,18.06046650747394,0,Europe/Prague,0
14823,"Janová, Řečiska",49.310581256557526,18.024669028147574,0,Europe/Prague,0
14827,"Pitín, žel.st.",49.03772707836281,17.845425500390203,0,Europe/Prague,0
14828,Drnovice,49.17899012170578,17.957084974092297,0,Europe/Prague,0
14829,"Malá Bystřice, revír",49.3938551464454,18.05458909790986,0,Europe/Prague,0
14839,"Strání, U Popelků",48.90628133571064,17.701611937518553,0,Europe/Prague,0
14840,"Vsetín, Jasenice, Climax",49.34091476816692,18.039064842511593,0,Europe/Prague,0
14845,"Bojkovice, Krhov",49.018916961098554,17.83044069342765,0,Europe/Prague,0
14857,"Valašská Polanka, rozc.",49.249562867337424,18.00028063675581,0,Europe/Prague,0
14860,"Vsetín, Jasenice, XV",49.3609772047049,18.047502119170606,0,Europe/Prague,0
14867,"Komňa, točna",48.990733979164496,17.802631792446757,0,Europe/Prague,0
14871,"Březová, Důbrava",48.92664507063752,17.730853901971297,0,Europe/Prague,0
14879,"Lopeník, točna",48.947796523597084,17.757316930117533,0,Europe/Prague,0
14881,Pitín,49.03837907329616,17.851993641911868,0,Europe/Prague,0
14882,"Drnovice, průmyslový areál",49.18199345,17.96425429,0,Europe/Prague,0
14889,"Vsetín, Jasenice, VIII",49.35076442969014,18.04756798239724,0,Europe/Prague,0
14892,"Slavičín, Hrádek, u kříže",49.07862601474239,17.889301994077353,0,Europe/Prague,0
14900,"Lopeník, mlýn",48.93478700848082,17.74460273630916,0,Europe/Prague,0
14901,"Lopeník, u Chovanců",48.94215916915719,17.753374687960616,0,Europe/Prague,0
14902,"Vsetín, Jasenice, I",49.34512691767926,18.047442618679593,0,Europe/Prague,0
14908,"Březová, Za hřbitovem",48.9305000403218,17.740264236892678,0,Europe/Prague,0
14920,"Vidče, Portáš",49.44834361682043,18.076698730508408,0,Europe/Prague,0
14922,"Březová, škola",48.92699211827549,17.73732931943773,0,Europe/Prague,0
14936,Hostětín,49.05019574626531,17.879270713414428,0,Europe/Prague,0
14942,"Slavičín, Hrádek",49.076737311849314,17.892917987171945,0,Europe/Prague,0
14944,"Březová, Olšovec",48.928099087710535,17.74158639152054,0,Europe/Prague,0
14946,"Bojkovice, Bzová, dol.konec",49.009058384770015,17.83130030870485,0,Europe/Prague,0
14963,"Zubří, výzk.ústav",49.463380983707836,18.08265473641404,0,Europe/Prague,0
14973,"Strání, škola",48.89987331611219,17.709213307493815,0,Europe/Prague,0
14975,"Slavičín, závod",49.098601092969076,17.913537075396043,0,Europe/Prague,0
14977,"Zubří, u Perniců",49.489060846009096,18.088707917719756,0,Europe/Prague,0
14978,"Lužná, Neratov",49.24408578781715,18.00902771348478,0,Europe/Prague,0
14988,Vlachova Lhota,49.15088721068918,17.953555944325363,0,Europe/Prague,0
14998,"Zubří, kovárna",49.48290440230863,18.089254229252088,0,Europe/Prague,0
14999,"Slavičín, Hrádek, Divnická",49.07783518903417,17.898920978335862,0,Europe/Prague,0
15010,"Komňa, Bučník",48.97213745149738,17.798611796980886,0,Europe/Prague,0
15011,"Valašská Bystřice, Tisové",49.4209003249554,18.078378554663704,0,Europe/Prague,0
15022,"Tichov, Kamenec",49.182624867385385,17.981525064239737,0,Europe/Prague,0
15034,"Vidče, Hajný",49.44330675247346,18.085204205760274,0,Europe/Prague,0
15035,"Vlachovice, Zábraní",49.12916185768605,17.942813136073468,0,Europe/Prague,0
15036,"Lopeník, u Vráblíků",48.94863393958412,17.775239954358604,0,Europe/Prague,0
15038,"Zubří, točna",49.496441776030736,18.09466266749383,0,Europe/Prague,0
15041,"Březová, dům peč.služby",48.921008616099066,17.742678856805334,0,Europe/Prague,0
15043,"Zubří, rozc.Staré Zubří",49.4754049016046,18.0916030414607,0,Europe/Prague,0
15045,"Bojkovice, Bzová, střed",49.0038037564783,17.834802598207023,0,Europe/Prague,0
15047,"Slavičín, žel.st.",49.07464876786604,17.89985067134224,0,Europe/Prague,0
15048,Vlachovice,49.1233550976608,17.939682740870374,0,Europe/Prague,0
15049,"Slavičín, u žel.st.",49.07539418545976,17.901042196386232,0,Europe/Prague,0
15051,"Zubří, centrum",49.470026761357495,18.091516337550928,0,Europe/Prague,0
15059,"Zubří, Klub",49.46314335854728,18.09058267226936,0,Europe/Prague,0
15062,"Vsetín, Červenka, střed",49.3477973938,18.060426712,0,Europe/Prague,0
15066,"Komňa, Nový dvůr",48.97467672174615,17.806080908954918,0,Europe/Prague,0
15080,"Slavičín, Divnice",49.08612583937955,17.91242551925463,0,Europe/Prague,0
15083,"Zubří, žel.st.",49.46132588577916,18.09127043418462,0,Europe/Prague,0
15084,"Vlachovice, sídliště",49.11890236040065,17.938441019405683,0,Europe/Prague,0
15089,"Strání, Květná, Mlýnky",48.89256105012568,17.711522504964897,0,Europe/Prague,0
15094,"Bystřice p.Lop., Kopánky",48.9612085753898,17.79488949715056,0,Europe/Prague,0
15097,"Valašská Bystřice, Hajdůšky",49.42059124864368,18.084984878483613,0,Europe/Prague,0
15116,"Lopeník, Obecní úřad",48.94922106673166,17.78342430244673,0,Europe/Prague,0
15118,"Bohuslavice n.Vláří, rozc.1.0",49.099408533995614,17.92674179418029,0,Europe/Prague,0
15123,"Šanov, rozc.1.0",49.05725069210943,17.891928249814356,0,Europe/Prague,0
15125,"Tichov, Obecní úřad",49.17772967162226,17.982703723669196,0,Europe/Prague,0
15128,"Tichov, dolní zast.",49.17615333660983,17.981427937661838,0,Europe/Prague,0
15138,"Vlachovice, Vrbětice",49.112347130603645,17.9387944904253,0,Europe/Prague,0
15141,"Lužná, obec",49.2398591663703,18.019966294347878,0,Europe/Prague,0
15154,"Hovězí, Hořansko, Kozinec",49.28363662063381,18.042673576114534,0,Europe/Prague,0
15161,"Vidče, škola",49.441430591836024,18.09515147757796,0,Europe/Prague,0
15171,"Vsetín, Červenka",49.347926942537555,18.07027271785042,0,Europe/Prague,0
15174,"Zubří, Staré Zubří",49.48886693329115,18.104615241178582,0,Europe/Prague,0
15176,"Vlachovice, Vrbětice, u Polomíku",49.10455528978249,17.93619248226844,0,Europe/Prague,0
15190,"Hovězí, Hořansko, točna",49.27945174633835,18.044201622252277,0,Europe/Prague,0
15191,"Rokytnice, horní zast.",49.06458229069863,17.90523246256563,0,Europe/Prague,0
15196,"Hovězí, Hořansko, rozc.",49.28937404055872,18.04909105745911,0,Europe/Prague,0
15211,"Zubří, u Dořičáků",49.481447791018425,18.10637796146112,0,Europe/Prague,0
15212,"Bohuslavice n.Vláří, točna",49.09042174935533,17.928677083491817,0,Europe/Prague,0
15227,"Hovězí, Hořansko, střed",49.29511091377022,18.054680065938573,0,Europe/Prague,0
15231,"Tichov, Tanečnice",49.17026547054614,17.987865298041868,0,Europe/Prague,0
15233,"Bojkovice, Bzová, kamenolom",48.993151331496385,17.842830086354592,0,Europe/Prague,0
15235,"Hovězí, obec",49.30582685632834,18.059770714343866,0,Europe/Prague,0
15236,"Šanov, horní zast.",49.04892826309821,17.89595429844943,0,Europe/Prague,0
15243,"Valašská Bystřice, u Petruželů",49.419553645217164,18.096784354488403,0,Europe/Prague,0
15249,"Strání, Květná",48.885802595544185,17.719963970713184,0,Europe/Prague,0
15260,"Hovězí, ObÚ",49.30435184137687,18.060498551936583,0,Europe/Prague,0
15263,"Vidče, Křižan",49.439645891334294,18.10302642771083,0,Europe/Prague,0
15270,"Hovězí, Hořansko, u Juříků",49.299767457634246,18.0590686783853,0,Europe/Prague,0
15276,"Valašská Bystřice, Spina",49.42799396455744,18.101198945668216,0,Europe/Prague,0
15297,"Rokytnice, rozc.1.0",49.071034110728434,17.91555763744248,0,Europe/Prague,0
15307,"Rokytnice, Obecní dům",49.06706593949318,17.91593619177892,0,Europe/Prague,0
15316,"Hovězí, Hovízky, Pod zákopů",49.30821070796774,18.065101923357116,0,Europe/Prague,0
15317,"Hovězí, Hovízky, Jednota",49.31259065263776,18.06695202972638,0,Europe/Prague,0
15318,"Žítková, rozc.",48.98809494119195,17.84353252092622,0,Europe/Prague,0
15328,"Vápenice, chata Lopata",48.94975203492037,17.80168971167616,0,Europe/Prague,0
15332,"Valašské Klobouky, Mirošov",49.147290288367145,17.978429298403498,0,Europe/Prague,0
15354,"Vidče, Fabián",49.43981382498451,18.108225926448753,0,Europe/Prague,0
15360,"Lidečko, rozc.Mužíkov",49.232272235622254,18.031771322032544,0,Europe/Prague,0
15370,"Vápenice, Losky",48.98050963588632,17.838881890058932,0,Europe/Prague,0
15380,"Valašská Bystřice, Na horách",49.429367185413,18.107231258151824,0,Europe/Prague,0
15386,"Hovězí, Hovízky, konečná",49.31814340330123,18.073465044373386,0,Europe/Prague,0
15395,Křekov,49.12788254585025,17.969020889861135,0,Europe/Prague,0
15417,"Vápenice, Mikulčin vrch, rozc.",48.94736899454811,17.807705743056626,0,Europe/Prague,0
15446,"Valašská Bystřice, kostel",49.41561773200703,18.109266139631863,0,Europe/Prague,0
15447,"Valašské Klobouky, Smolina, háj",49.160625469923644,17.997091510450733,0,Europe/Prague,0
15450,"Lačnov, Horňansko",49.1867212641137,18.013858529408985,0,Europe/Prague,0
15458,"Valašské Klobouky, Smolina",49.15714188321232,17.995579280469215,0,Europe/Prague,0
15459,"Rokytnice, TVD",49.069783386406584,17.930324237315514,0,Europe/Prague,0
15473,"Valašská Bystřice, Křižnice",49.426544709521195,18.115089878808167,0,Europe/Prague,0
15481,"Vidče, Křižnice",49.444317506933324,18.11877452507179,0,Europe/Prague,0
15483,"Valašské Klobouky, Smolina, dětský domov",49.155396384130434,17.996624961733552,0,Europe/Prague,0
15484,"Vápenice, Komínky",48.94524495059564,17.81201743262013,0,Europe/Prague,0
15486,"Valašská Bystřice, škola",49.41202761481291,18.112242313725755,0,Europe/Prague,0
15495,"Vápenice, točna",48.95757352366159,17.82722168591035,0,Europe/Prague,0
15502,"Lačnov, střed",49.1814891022337,18.015025661093244,0,Europe/Prague,0
15512,"Rožnov p.Radh., u trati",49.4598869252,18.1242751766,0,Europe/Prague,0
15525,"Vápenice, hor.konec",48.96023574423727,17.832863257747718,0,Europe/Prague,0
15527,"Rožnov p.Radh., Koryčanské paseky",49.46411430652121,18.126676458002613,0,Europe/Prague,0
15532,"Vápenice, Obecní úřad",48.96799165739109,17.841647117100838,0,Europe/Prague,0
15535,"Valašská Bystřice, Leskovec",49.42297337229471,18.118177892025738,0,Europe/Prague,0
15543,"Lačnov, škola",49.17921375010915,18.01664462253355,0,Europe/Prague,0
15545,"Valašské Klobouky, Lipina",49.13141114118547,17.985094473161812,0,Europe/Prague,0
15550,"Rožnov p.Radh., U bazénu",49.46474315717136,18.12780571146743,0,Europe/Prague,0
15555,"Valašské Klobouky, Sychrov",49.141325524159576,18.00083122386895,0,Europe/Prague,0
15568,"Vápenice, prodejna Jednota",48.96815881168985,17.845432843371423,0,Europe/Prague,0
15575,"Valašské Klobouky, SÚS",49.14344859334171,17.99440887317861,0,Europe/Prague,0
15588,"Valašská Bystřice, Hlaváčky",49.42772753249103,18.123903240552774,0,Europe/Prague,0
15591,"Rožnov p.Radh., 1.máje",49.46211788044606,18.131064439921353,0,Europe/Prague,0
15595,"Lačnov, rozc.",49.174976262269176,18.018919619286816,0,Europe/Prague,0
15596,"Příbor, u škol",49.6396255493,18.1397457123,0,Europe/Prague,0
15607,"Příbor, u kostela",49.64108805227763,18.140665913142122,0,Europe/Prague,0
15610,"Příbor, u pošty",49.64034695186492,18.141034048278975,0,Europe/Prague,0
15613,"Žítková, Polany",48.986417526574144,17.86843921761267,0,Europe/Prague,0
15618,"Rožnov p.Radh., obřadní síň",49.45304779238527,18.131376229496553,0,Europe/Prague,0
15628,"Rožnov p.Radh., aut.st.",49.4600081,18.1344622,0,Europe/Prague,0
15631,"Rožnov p.Radh., Dolní Paseky, točna",49.48824830503145,18.139151300722197,0,Europe/Prague,0
15634,"Lidečko, rozc.Pulčín",49.220656946167246,18.04995157847947,0,Europe/Prague,0
15639,"Valašská Bystřice, u Mičků",49.42462343841876,18.12833436232788,0,Europe/Prague,0
15640,"Huslenky, žel.st.",49.30343732352065,18.092796964358605,0,Europe/Prague,0
15653,"Lidečko, Čertovy skály",49.21486695683977,18.048091219584336,0,Europe/Prague,0
15664,"Rožnov p.Radh., zemědělská škola",49.461247352354874,18.13780218697536,0,Europe/Prague,0
15665,"Rožnov p.Radh., Uhliska",49.436333316180274,18.132838947336,0,Europe/Prague,0
15666,"Valašská Bystřice, Říka",49.408572421196006,18.126806339110324,0,Europe/Prague,0
15671,"Rožnov p.Radh., Dolní Paseky, u trafiky",49.48057049191188,18.14129491970284,0,Europe/Prague,0
15674,"Rožnov p.Radh., Pod Písečnou",49.46306915238986,18.138558227833958,0,Europe/Prague,0
15675,"Rožnov p.Radh., Videčská",49.45820526295913,18.1381808853491,0,Europe/Prague,0
15679,"Starý Hrozenkov, Vápenická",48.96799144972888,17.856709713170503,0,Europe/Prague,0
15681,"Huslenky, rozc.Uherská",49.28950759768055,18.08732104016128,0,Europe/Prague,0
15684,"Huslenky, u Suřanů",49.28195032219776,18.084284031579983,0,Europe/Prague,0
15685,"Huslenky, u hřbitova",49.29465729157122,18.089778351746336,0,Europe/Prague,0
15687,"Rožnov p.Radh., Dolní Paseky, u Kamen",49.477025219413306,18.142316317315526,0,Europe/Prague,0
15696,"Halenkov, Dinotice, u Svrčinů",49.34512256343784,18.110614355303646,0,Europe/Prague,0
15699,"Rožnov p.Radh., Dolní Paseky, palírna",49.46673707384302,18.142103256250415,0,Europe/Prague,0
15705,"Rožnov p.Radh., Na Skalce",49.44335924676361,18.137726682266713,0,Europe/Prague,0
15706,"Lidečko, zast.",49.2108652781929,18.05025663821662,0,Europe/Prague,0
15714,"Zděchov, kolonie",49.26642399744753,18.07997177304109,0,Europe/Prague,0
15715,"Valašské Klobouky, aut.st.",49.14020539737736,18.007560586650882,0,Europe/Prague,0
15716,"Zděchov, škola",49.26077608281839,18.07763189514281,0,Europe/Prague,0
15717,"Rožnov p.Radh., Bezručova",49.462546965752146,18.142711540475446,0,Europe/Prague,0
15719,"Rokytnice, Kochavec, horní zast.",49.04834269141262,17.937654501163948,0,Europe/Prague,0
15723,"Rožnov p.Radh., Kramolišov",49.450118212179824,18.140910176611133,0,Europe/Prague,0
15727,Jestřabí,49.06841686794072,17.95530675676295,0,Europe/Prague,0
15729,"Rožnov p.Radh., u náměstí",49.45669915707917,18.14130689245391,0,Europe/Prague,0
15731,"Rožnov p.Radh., Knihovna",49.46238042486574,18.1435819209015,0,Europe/Prague,0
15732,"Zděchov, hotel",49.25769673957475,18.076658232440106,0,Europe/Prague,0
15734,"Huslenky, ObÚ",49.304839327713275,18.097869478697213,0,Europe/Prague,0
15735,"Zděchov, Misný",49.26902797634353,18.082812261001372,0,Europe/Prague,0
15736,"Příbor, Tatra",49.6421203613,18.1518344879,0,Europe/Prague,0
15737,"Starý Hrozenkov, kulturní dům",48.96719117948147,17.86133333907381,0,Europe/Prague,0
15745,"Valašské Klobouky, ZŠ",49.14576313774078,18.014119087740937,0,Europe/Prague,0
15747,"Rožnov p.Radh., Palackého ul.",49.46056853120188,18.1453986585489,0,Europe/Prague,0
15758,"Valašské Klobouky, poliklinika",49.142885427661994,18.01397776518304,0,Europe/Prague,0
15762,"Lidečko, rest.",49.20283921291917,18.051287648390737,0,Europe/Prague,0
15764,"Štítná n.Vláří-Popov, Popov",49.080579315886816,17.96856539396729,0,Europe/Prague,0
15766,"Valašská Bystřice, Žáry",49.4263472,18.1398706,0,Europe/Prague,0
15775,"Žítková, Obecní úřad",48.98019639808924,17.880028673323103,0,Europe/Prague,0
15785,"Vyškovec, Bošáčky",48.936591881196435,17.834565914180285,0,Europe/Prague,0
15794,"Rokytnice, Kochavec, točna",49.03963293435282,17.93780302459634,0,Europe/Prague,0
15797,"Halenkov, Dinotice, zámeček",49.33663349989694,18.116946256831348,0,Europe/Prague,0
15807,"Valašská Bystřice, U Machýčků",49.40518978133253,18.138519864714397,0,Europe/Prague,0
15812,"Valašské Klobouky, provozovna",49.146520706945886,18.020330091132013,0,Europe/Prague,0
15813,"Huslenky, Uherská, u Blinků",49.283306821363574,18.097017927850416,0,Europe/Prague,0
15823,"Rožnov p.Radh., u kříže",49.45487123236672,18.150760154663853,0,Europe/Prague,0
15824,"Valašské Klobouky, Valaška",49.13075388355885,18.012108054976782,0,Europe/Prague,0
15826,"Valašské Klobouky, záv.Igla",49.140686462753465,18.019150357782205,0,Europe/Prague,0
15828,"Horní Lideč, rybník",49.18032970786262,18.044876317436998,0,Europe/Prague,0
15833,"Lidečko, Pulčín lom",49.21632672100416,18.06588287774775,0,Europe/Prague,0
15837,"Starý Hrozenkov, dol.konec",48.96386204339417,17.86974324349183,0,Europe/Prague,0
15840,"Štítná n.Vláří-Popov, Březová",49.0727594009339,17.970204158386334,0,Europe/Prague,0
15844,"Huslenky, Bařiny, škola",49.307846856122644,18.10979537349184,0,Europe/Prague,0
15845,"Vyškovec, Hribovny, točna",48.93379385319689,17.837790724774646,0,Europe/Prague,0
15849,"Lidečko, pila",49.19562860183139,18.05550099321673,0,Europe/Prague,0
15851,"Valašské Klobouky, žel.st.",49.14243851502563,18.022536796132144,0,Europe/Prague,0
15854,"Valašská Bystřice, Paseky",49.40383685886018,18.142167930346336,0,Europe/Prague,0
15866,"Rožnov p.Radh., rest.U eroplánu",49.4655952454,18.1568889618,0,Europe/Prague,0
15867,"Štítná n.Vláří-Popov, Štítná, Brálova",49.06863964915822,17.969964706640464,0,Europe/Prague,0
15876,"Huslenky, Bařiny, MŠ",49.30981277433098,18.11424894173355,0,Europe/Prague,0
15877,Poteč,49.155237098306465,18.034368066787447,0,Europe/Prague,0
15884,"Žítková, ZD",48.97764856357922,17.889050468088158,0,Europe/Prague,0
15897,"Huslenky, Uherská, u Machalů",49.27709949269883,18.102170067352844,0,Europe/Prague,0
15905,"Valašská Bystřice, Kelnar",49.40056713156665,18.146413709641237,0,Europe/Prague,0
15914,"Štítná n.Vláří-Popov, Štítná",49.06974010615666,17.975349590155556,0,Europe/Prague,0
15915,"Rožnov p.Radh., Horní Paseky, křížek",49.47285578907424,18.161992102726202,0,Europe/Prague,0
15918,"Huslenky, Kychová, rozc.",49.30937118741412,18.117129542080367,0,Europe/Prague,0
15924,Vyškovec,48.940562879165505,17.853461907731557,0,Europe/Prague,0
15925,"Horní Lideč, škola",49.18324530670778,18.054831231069784,0,Europe/Prague,0
15927,"Horní Lideč, u žel.st.",49.187673319419346,18.057700244865963,0,Europe/Prague,0
15929,"Horní Lideč, žel.st.",49.188071868076044,18.058030587365717,0,Europe/Prague,0
15936,"Francova Lhota, Pulčín",49.2200728,18.0771547,0,Europe/Prague,0
15937,"Halenkov, Dinotice, u Kršelských",49.32863090643337,18.126351321055967,0,Europe/Prague,0
15942,"Lidečko, Pulčín Spina",49.21226746693924,18.073379497630455,0,Europe/Prague,0
15947,"Rožnov p.Radh., kopeček",49.47731793244304,18.16512862373472,0,Europe/Prague,0
15960,"Valašské Klobouky, koliba",49.11899858785144,18.016910512353395,0,Europe/Prague,0
15966,"Žítková, rekr.stř.",48.97904126676789,17.89841135361068,0,Europe/Prague,0
15971,"Starý Hrozenkov, pila",48.95904889159793,17.87968442449398,0,Europe/Prague,0
15976,"Rožnov p.Radh., U Janoštíků",49.48234875140408,18.1690778130082,0,Europe/Prague,0
15986,"Huslenky, Pod černým",49.310249933275685,18.124316024503674,0,Europe/Prague,0
15995,"Halenkov, Dinotice, u Děčků",49.326412092252646,18.131604143860933,0,Europe/Prague,0
15996,"Huslenky, Kychová, Hluboček",49.30276989796823,18.122458831163957,0,Europe/Prague,0
16010,"Horní Lideč, rozc.",49.18064152329657,18.061871046270447,0,Europe/Prague,0
16028,"Huslenky, Uherská, hájenka",49.27202717291413,18.112062553254088,0,Europe/Prague,0
16030,"Valašské Příkazy, ObÚ",49.16746991251143,18.056574262487906,0,Europe/Prague,0
16031,"Rožnov p.Radh., Pod Pindulí",49.49436068652982,18.17601293202866,0,Europe/Prague,0
16032,"Huslenky, Černé, u žel.přejezdu",49.310160431589466,18.128718369133235,0,Europe/Prague,0
16036,"Dolní Bečva, pila",49.46805772751023,18.172571017587117,0,Europe/Prague,0
16048,"Štítná n.Vláří-Popov, Štítná, přejezd",49.07327202615911,17.99275431415558,0,Europe/Prague,0
16051,"Valašské Příkazy, rozc.",49.16830996307066,18.05932854104805,0,Europe/Prague,0
16054,"Huslenky, Kychová, kovárna",49.29842570394906,18.126435829108363,0,Europe/Prague,0
16061,"Halenkov, Dinotice, u Měrků",49.322253743784124,18.136341925106496,0,Europe/Prague,0
16080,"Halenkov, Lušová, revír",49.35669737942338,18.150803877315514,0,Europe/Prague,0
16086,"Rožnov p.Radh., Na Kopově",49.4969927233253,18.182433314155567,0,Europe/Prague,0
16098,"Halenkov, farma",49.31931580797855,18.13904748615158,0,Europe/Prague,0
16099,"Huslenky, Kychová, u č.180",49.293192365213415,18.1286284562451,0,Europe/Prague,0
16103,"Huslenky, Černé, u Surovčáků",49.30719512120488,18.134840539014366,0,Europe/Prague,0
16106,"Střelná, rozc.",49.18499134145833,18.075397410213004,0,Europe/Prague,0
16133,"Trojanovice, Na Pinduli",49.499894157495376,18.186648344293687,0,Europe/Prague,0
16139,"Huslenky, Uherská, konečná",49.27064397452426,18.122440828954915,0,Europe/Prague,0
16142,"Halenkov, rozc.Dinotice",49.31629085059958,18.141483967745458,0,Europe/Prague,0
16143,"Halenkov, Lušová, u Kučerů",49.34920744992043,18.153488446235038,0,Europe/Prague,0
16156,"Vigantice, škola",49.444991845666635,18.17982807570084,0,Europe/Prague,0
16163,"Dolní Bečva, zotavovna",49.46275710942293,18.184094404808352,0,Europe/Prague,0
16169,"Brumov-Bylnice, ZD",49.10165090973549,18.026390377455147,0,Europe/Prague,0
16171,"Halenkov, střed",49.31719970874384,18.145820725413678,0,Europe/Prague,0
16188,"Halenkov, Lušová, u Kopeckých",49.34170541935998,18.155929039908596,0,Europe/Prague,0
16195,"Huslenky, Černé, u Kučerů",49.302737412043804,18.14188365933996,0,Europe/Prague,0
16196,"Francova Lhota, u lávky",49.19294019064038,18.08889105501049,0,Europe/Prague,0
16199,"Brumov-Bylnice, MEZ TRIODYN",49.09261845458762,18.022834875912963,0,Europe/Prague,0
16208,"Huslenky, Kychová, zámeček",49.284864518355896,18.135385694713946,0,Europe/Prague,0
16216,"Trojanovice, Pod Kozincem",49.514504817221,18.196983625659705,0,Europe/Prague,0
16220,"Brumov-Bylnice, rozc.",49.07717711719531,18.01407672897964,0,Europe/Prague,0
16237,"Brumov-Bylnice, základní škola",49.08229122283617,18.0198124928975,0,Europe/Prague,0
16240,"Vigantice, Jednota",49.44272477584622,18.187760415700847,0,Europe/Prague,0
16241,"Halenkov, Lušová, u Halamíčků",49.33718713744358,18.15998145412087,0,Europe/Prague,0
16247,"Brumov-Bylnice, Rozkvět",49.09332875973457,18.02893392770869,0,Europe/Prague,0
16250,"Dolní Bečva, škola",49.45725267637631,18.191796956802058,0,Europe/Prague,0
16253,"Brumov-Bylnice, mateřská škola",49.085671618213276,18.023916321788573,0,Europe/Prague,0
16263,"Halenkov, U fabriky",49.321354429673036,18.15565746217653,0,Europe/Prague,0
16266,"Brumov-Bylnice, sídliště",49.08262003301877,18.022343305212978,0,Europe/Prague,0
16267,"Halenkov, Černé, konečná",49.29605128665599,18.146196190724638,0,Europe/Prague,0
16277,"Frenštát p.Radh., rest.Siberie",49.53346901935266,18.20332788693703,0,Europe/Prague,0
16281,"Dolní Bečva, ObÚ",49.455085617840716,18.193876728118425,0,Europe/Prague,0
16284,"Francova Lhota, u Raisů",49.19700573490391,18.100623417862963,0,Europe/Prague,0
16285,"Brumov-Bylnice, žel.st.",49.069039357423215,18.014406761466738,0,Europe/Prague,0
16291,"Trojanovice, rest.u Bačů",49.522195413459414,18.204015711796576,0,Europe/Prague,0
16298,"Valašská Senice, III",49.221284050941776,18.114262537130397,0,Europe/Prague,0
16299,"Valašská Senice, Jednota",49.224730862287245,18.116163013699794,0,Europe/Prague,0
16307,"Nový Hrozenkov, Lušová, u Tlašků",49.331650557350855,18.1639808451065,0,Europe/Prague,0
16312,"Dolní Bečva, Na čtvrtích",49.46016784803206,18.198187193936064,0,Europe/Prague,0
16313,"Valašská Senice, rest.",49.22828507720255,18.11987288989468,0,Europe/Prague,0
16317,"Frenštát p.Radh., sídliště",49.54215951944329,18.207704481188358,0,Europe/Prague,0
16321,"Študlov, rest.",49.16216660099294,18.083103818028732,0,Europe/Prague,0
16330,"Valašská Senice, II",49.212875777592984,18.1137887753669,0,Europe/Prague,0
16336,"Halenkov, U mostu",49.32647212859028,18.165081028426346,0,Europe/Prague,0
16346,"Návojná, žel.st.",49.10128211432143,18.044708184794512,0,Europe/Prague,0
16347,"Dolní Bečva, u vodojemu",49.465767071413715,18.20212030012684,0,Europe/Prague,0
16359,"Valašská Senice, konečná",49.23198398038664,18.12562284632815,0,Europe/Prague,0
16362,"Vigantice, stolařství",49.43772662091831,18.198222149643396,0,Europe/Prague,0
16369,"Huslenky, Kychová, ozdravovna",49.27645686893394,18.147747000759868,0,Europe/Prague,0
16371,"Francova Lhota, škola",49.20113142193829,18.11086698307131,0,Europe/Prague,0
16378,"Frenštát p.Radh., u škol",49.5456383,18.2132806,0,Europe/Prague,0
16380,"Študlov, točna",49.15852209336083,18.086142710178294,0,Europe/Prague,0
16381,"Střelná, Jednota",49.17728977190018,18.098307888335885,0,Europe/Prague,0
16384,Návojná,49.10826648163721,18.05324869975831,0,Europe/Prague,0
16386,"Nový Hrozenkov, Břežitá, rozc.",49.32812359401965,18.169793606270463,0,Europe/Prague,0
16410,"Francova Lhota, u Pavlíků",49.206031572321706,18.116965576958926,0,Europe/Prague,0
16416,"Brumov-Bylnice, Vlárská",49.062486432096094,18.021267876735067,0,Europe/Prague,0
16441,"Hutisko-Solanec, pekárna",49.43424368737307,18.20434046988308,0,Europe/Prague,0
16444,"Dolní Bečva, Dolní Rozpité, točna",49.47086522897718,18.210806845998007,0,Europe/Prague,0
16446,"Hukvaldy, Rychaltice, pod mostem",49.6500167847,18.2170772552,0,Europe/Prague,0
16457,"Hutisko-Solanec, Za kopcem",49.41901084143371,18.201818032968816,0,Europe/Prague,0
